{
	"type" : "FeatureCollection",
	"name" : "AlpineSummits",
	"features" : [
		{
			"type" : "Feature",
			"geometry" : {
				"type" : "Point",
				"coordinates" : [ 10.0439447848, 46.2296234379, 2900.316212 ]
			},
			"properties" : {
				"OBJECTID" : 1,
				"HOEHE" : 2901,
				"NAME" : "Piz Combul",
				"SPRACHCODE" : "Italienisch inkl. Lokalsprachen"
			}
		},
		{
			"type" : "Feature",
			"geometry" : {
				"type" : "Point",
				"coordinates" : [ 9.816066826, 46.4083730292, 3450.548712 ]
			},
			"properties" : {
				"OBJECTID" : 2,
				"HOEHE" : 3451,
				"NAME" : "Piz Corvatsch",
				"SPRACHCODE" : "Rumantsch Grischun inkl. Lokalsprachen"
			}
		},
		{
			"type" : "Feature",
			"geometry" : {
				"type" : "Point",
				"coordinates" : [ 10.0448103412, 46.476761097, 3103.551212 ]
			},
			"properties" : {
				"OBJECTID" : 3,
				"HOEHE" : 3104,
				"NAME" : "Piz la Stretta",
				"SPRACHCODE" : "Rumantsch Grischun inkl. Lokalsprachen"
			}
		},
		{
			"type" : "Feature",
			"geometry" : {
				"type" : "Point",
				"coordinates" : [ 10.0448103412, 46.476761097, 3103.551212 ]
			},
			"properties" : {
				"OBJECTID" : 4,
				"HOEHE" : 3104,
				"NAME" : "Monte Breva",
				"SPRACHCODE" : "Italienisch inkl. Lokalsprachen"
			}
		},
		{
			"type" : "Feature",
			"geometry" : {
				"type" : "Point",
				"coordinates" : [ 10.4573203265, 46.5418801128, 3025.311212 ]
			},
			"properties" : {
				"OBJECTID" : 5,
				"HOEHE" : 3026,
				"NAME" : "Rötlspitz",
				"SPRACHCODE" : "Hochdeutsch inkl. Lokalsprachen"
			}
		},
		{
			"type" : "Feature",
			"geometry" : {
				"type" : "Point",
				"coordinates" : [ 10.4573203265, 46.5418801128, 3025.311212 ]
			},
			"properties" : {
				"OBJECTID" : 6,
				"HOEHE" : 3026,
				"NAME" : "Piz Cotschen",
				"SPRACHCODE" : "Rumantsch Grischun inkl. Lokalsprachen"
			}
		},
		{
			"type" : "Feature",
			"geometry" : {
				"type" : "Point",
				"coordinates" : [ 10.4573203265, 46.5418801128, 3025.311212 ]
			},
			"properties" : {
				"OBJECTID" : 7,
				"HOEHE" : 3026,
				"NAME" : "Punta Rosa",
				"SPRACHCODE" : "Italienisch inkl. Lokalsprachen"
			}
		},
		{
			"type" : "Feature",
			"geometry" : {
				"type" : "Point",
				"coordinates" : [ 9.9996258601, 46.2832922112, 3102.585012 ]
			},
			"properties" : {
				"OBJECTID" : 8,
				"HOEHE" : 3103,
				"NAME" : "Piz Cancian",
				"SPRACHCODE" : "Italienisch inkl. Lokalsprachen"
			}
		},
		{
			"type" : "Feature",
			"geometry" : {
				"type" : "Point",
				"coordinates" : [ 9.7847293872, 46.3408185392, 3362.433712 ]
			},
			"properties" : {
				"OBJECTID" : 9,
				"HOEHE" : 3363,
				"NAME" : "Piz Fora",
				"SPRACHCODE" : "Italienisch inkl. Lokalsprachen"
			}
		},
		{
			"type" : "Feature",
			"geometry" : {
				"type" : "Point",
				"coordinates" : [ 9.993601608, 46.3523788957, 3452.480012 ]
			},
			"properties" : {
				"OBJECTID" : 10,
				"HOEHE" : 3453,
				"NAME" : "Piz Varuna",
				"SPRACHCODE" : "Italienisch inkl. Lokalsprachen"
			}
		},
		{
			"type" : "Feature",
			"geometry" : {
				"type" : "Point",
				"coordinates" : [ 10.1099707771, 46.3531556922, 3074.543712 ]
			},
			"properties" : {
				"OBJECTID" : 11,
				"HOEHE" : 3075,
				"NAME" : "Piz Sena",
				"SPRACHCODE" : "Italienisch inkl. Lokalsprachen"
			}
		},
		{
			"type" : "Feature",
			"geometry" : {
				"type" : "Point",
				"coordinates" : [ 10.1099707771, 46.3531556922, 3074.543712 ]
			},
			"properties" : {
				"OBJECTID" : 12,
				"HOEHE" : 3075,
				"NAME" : "Vetta Sperella",
				"SPRACHCODE" : "Italienisch inkl. Lokalsprachen"
			}
		},
		{
			"type" : "Feature",
			"geometry" : {
				"type" : "Point",
				"coordinates" : [ 9.9995536558, 46.4493295644, 2974.456212 ]
			},
			"properties" : {
				"OBJECTID" : 13,
				"HOEHE" : 2975,
				"NAME" : "Piz Alv",
				"SPRACHCODE" : "Italienisch inkl. Lokalsprachen"
			}
		},
		{
			"type" : "Feature",
			"geometry" : {
				"type" : "Point",
				"coordinates" : [ 9.9058349103, 46.4513940122, 3153.562512 ]
			},
			"properties" : {
				"OBJECTID" : 14,
				"HOEHE" : 3154,
				"NAME" : "Piz Chalchagn",
				"SPRACHCODE" : "Rumantsch Grischun inkl. Lokalsprachen"
			}
		},
		{
			"type" : "Feature",
			"geometry" : {
				"type" : "Point",
				"coordinates" : [ 9.8431217354, 46.4532126321, 3187.907512 ]
			},
			"properties" : {
				"OBJECTID" : 15,
				"HOEHE" : 3188,
				"NAME" : "Piz Surlej",
				"SPRACHCODE" : "Rumantsch Grischun inkl. Lokalsprachen"
			}
		},
		{
			"type" : "Feature",
			"geometry" : {
				"type" : "Point",
				"coordinates" : [ 10.0283281806, 46.4510541989, 3048.690012 ]
			},
			"properties" : {
				"OBJECTID" : 16,
				"HOEHE" : 3049,
				"NAME" : "Piz Minor",
				"SPRACHCODE" : "Rumantsch Grischun inkl. Lokalsprachen"
			}
		},
		{
			"type" : "Feature",
			"geometry" : {
				"type" : "Point",
				"coordinates" : [ 9.9635977656, 46.46394942, 3166.843712 ]
			},
			"properties" : {
				"OBJECTID" : 17,
				"HOEHE" : 3167,
				"NAME" : "Piz Albris",
				"SPRACHCODE" : "Rumantsch Grischun inkl. Lokalsprachen"
			}
		},
		{
			"type" : "Feature",
			"geometry" : {
				"type" : "Point",
				"coordinates" : [ 9.7599118949, 46.4910139001, 3379.213712 ]
			},
			"properties" : {
				"OBJECTID" : 18,
				"HOEHE" : 3380,
				"NAME" : "Piz Güglia",
				"SPRACHCODE" : "Rumantsch Grischun inkl. Lokalsprachen"
			}
		},
		{
			"type" : "Feature",
			"geometry" : {
				"type" : "Point",
				"coordinates" : [ 9.7599118949, 46.4910139001, 3379.213712 ]
			},
			"properties" : {
				"OBJECTID" : 19,
				"HOEHE" : 3380,
				"NAME" : "Piz Julier",
				"SPRACHCODE" : "Hochdeutsch inkl. Lokalsprachen"
			}
		},
		{
			"type" : "Feature",
			"geometry" : {
				"type" : "Point",
				"coordinates" : [ 9.9872764689, 46.4872494938, 3152.475012 ]
			},
			"properties" : {
				"OBJECTID" : 20,
				"HOEHE" : 3153,
				"NAME" : "Piz Prüna",
				"SPRACHCODE" : "Rumantsch Grischun inkl. Lokalsprachen"
			}
		},
		{
			"type" : "Feature",
			"geometry" : {
				"type" : "Point",
				"coordinates" : [ 9.8102332337, 46.5432050856, 3245.868712 ]
			},
			"properties" : {
				"OBJECTID" : 21,
				"HOEHE" : 3246,
				"NAME" : "Piz Ot",
				"SPRACHCODE" : "Rumantsch Grischun inkl. Lokalsprachen"
			}
		},
		{
			"type" : "Feature",
			"geometry" : {
				"type" : "Point",
				"coordinates" : [ 10.338184397, 46.5427326868, 3124.321212 ]
			},
			"properties" : {
				"OBJECTID" : 22,
				"HOEHE" : 3125,
				"NAME" : "Piz Schumbraida",
				"SPRACHCODE" : "Rumantsch Grischun inkl. Lokalsprachen"
			}
		},
		{
			"type" : "Feature",
			"geometry" : {
				"type" : "Point",
				"coordinates" : [ 10.3347520508, 46.5869135001, 2962.551212 ]
			},
			"properties" : {
				"OBJECTID" : 23,
				"HOEHE" : 2963,
				"NAME" : "Piz Turettas",
				"SPRACHCODE" : "Rumantsch Grischun inkl. Lokalsprachen"
			}
		},
		{
			"type" : "Feature",
			"geometry" : {
				"type" : "Point",
				"coordinates" : [ 10.1545115895, 46.7232751601, 3123.283712 ]
			},
			"properties" : {
				"OBJECTID" : 24,
				"HOEHE" : 3124,
				"NAME" : "Piz Nuna",
				"SPRACHCODE" : "Rumantsch Grischun inkl. Lokalsprachen"
			}
		},
		{
			"type" : "Feature",
			"geometry" : {
				"type" : "Point",
				"coordinates" : [ 9.9472007816, 46.8130624277, 2980.453712 ]
			},
			"properties" : {
				"OBJECTID" : 25,
				"HOEHE" : 2980,
				"NAME" : "Pischahorn",
				"SPRACHCODE" : "Hochdeutsch inkl. Lokalsprachen"
			}
		},
		{
			"type" : "Feature",
			"geometry" : {
				"type" : "Point",
				"coordinates" : [ 9.8829520368, 46.3736312939, 3936.462512 ]
			},
			"properties" : {
				"OBJECTID" : 26,
				"HOEHE" : 3937,
				"NAME" : "Piz Roseg",
				"SPRACHCODE" : "Rumantsch Grischun inkl. Lokalsprachen"
			}
		},
		{
			"type" : "Feature",
			"geometry" : {
				"type" : "Point",
				"coordinates" : [ 9.9603466942, 46.3788657085, 3899.420012 ]
			},
			"properties" : {
				"OBJECTID" : 27,
				"HOEHE" : 3900,
				"NAME" : "Piz Palü",
				"SPRACHCODE" : "Rumantsch Grischun inkl. Lokalsprachen"
			}
		},
		{
			"type" : "Feature",
			"geometry" : {
				"type" : "Point",
				"coordinates" : [ 9.9080009873, 46.3824133157, 4048.495012 ]
			},
			"properties" : {
				"OBJECTID" : 28,
				"HOEHE" : 4047,
				"NAME" : "Piz Bernina",
				"SPRACHCODE" : "Rumantsch Grischun inkl. Lokalsprachen"
			}
		},
		{
			"type" : "Feature",
			"geometry" : {
				"type" : "Point",
				"coordinates" : [ 9.9774535656, 46.3873773248, 3604.986212 ]
			},
			"properties" : {
				"OBJECTID" : 29,
				"HOEHE" : 3606,
				"NAME" : "Piz Cambrena",
				"SPRACHCODE" : "Italienisch inkl. Lokalsprachen"
			}
		},
		{
			"type" : "Feature",
			"geometry" : {
				"type" : "Point",
				"coordinates" : [ 10.1580104135, 46.3856301649, 3263.506212 ]
			},
			"properties" : {
				"OBJECTID" : 30,
				"HOEHE" : 3264,
				"NAME" : "Scima da Saoseo",
				"SPRACHCODE" : "Italienisch inkl. Lokalsprachen"
			}
		},
		{
			"type" : "Feature",
			"geometry" : {
				"type" : "Point",
				"coordinates" : [ 9.9015412855, 46.4025385546, 3750.433712 ]
			},
			"properties" : {
				"OBJECTID" : 31,
				"HOEHE" : 3751,
				"NAME" : "Piz Morteratsch",
				"SPRACHCODE" : "Rumantsch Grischun inkl. Lokalsprachen"
			}
		},
		{
			"type" : "Feature",
			"geometry" : {
				"type" : "Point",
				"coordinates" : [ 10.1172233662, 46.426042853, 3301.642512 ]
			},
			"properties" : {
				"OBJECTID" : 32,
				"HOEHE" : 3302,
				"NAME" : "Piz Paradisin",
				"SPRACHCODE" : "Italienisch inkl. Lokalsprachen"
			}
		},
		{
			"type" : "Feature",
			"geometry" : {
				"type" : "Point",
				"coordinates" : [ 9.9565255221, 46.4884372296, 3261.428712 ]
			},
			"properties" : {
				"OBJECTID" : 33,
				"HOEHE" : 3262,
				"NAME" : "Piz Languard",
				"SPRACHCODE" : "Rumantsch Grischun inkl. Lokalsprachen"
			}
		},
		{
			"type" : "Feature",
			"geometry" : {
				"type" : "Point",
				"coordinates" : [ 9.7873252057, 46.5064081769, 3055.511212 ]
			},
			"properties" : {
				"OBJECTID" : 34,
				"HOEHE" : 3056,
				"NAME" : "Piz Nair",
				"SPRACHCODE" : "Rumantsch Grischun inkl. Lokalsprachen"
			}
		},
		{
			"type" : "Feature",
			"geometry" : {
				"type" : "Point",
				"coordinates" : [ 9.9508976515, 46.5088488124, 3198.527512 ]
			},
			"properties" : {
				"OBJECTID" : 35,
				"HOEHE" : 3199,
				"NAME" : "Piz Vadret",
				"SPRACHCODE" : "Rumantsch Grischun inkl. Lokalsprachen"
			}
		},
		{
			"type" : "Feature",
			"geometry" : {
				"type" : "Point",
				"coordinates" : [ 10.0423552386, 46.5101167208, 3103.445012 ]
			},
			"properties" : {
				"OBJECTID" : 36,
				"HOEHE" : 3104,
				"NAME" : "Munt Cotschen",
				"SPRACHCODE" : "Rumantsch Grischun inkl. Lokalsprachen"
			}
		},
		{
			"type" : "Feature",
			"geometry" : {
				"type" : "Point",
				"coordinates" : [ 9.7592632958, 46.5223565782, 3229.482512 ]
			},
			"properties" : {
				"OBJECTID" : 37,
				"HOEHE" : 3230,
				"NAME" : "Piz Bever",
				"SPRACHCODE" : "Rumantsch Grischun inkl. Lokalsprachen"
			}
		},
		{
			"type" : "Feature",
			"geometry" : {
				"type" : "Point",
				"coordinates" : [ 9.7954151619, 46.5305078374, 3160.475012 ]
			},
			"properties" : {
				"OBJECTID" : 38,
				"HOEHE" : 3161,
				"NAME" : "Piz Saluver",
				"SPRACHCODE" : "Rumantsch Grischun inkl. Lokalsprachen"
			}
		},
		{
			"type" : "Feature",
			"geometry" : {
				"type" : "Point",
				"coordinates" : [ 10.0193570509, 46.5532401638, 2973.296212 ]
			},
			"properties" : {
				"OBJECTID" : 39,
				"HOEHE" : 2974,
				"NAME" : "Piz Vaüglia",
				"SPRACHCODE" : "Rumantsch Grischun inkl. Lokalsprachen"
			}
		},
		{
			"type" : "Feature",
			"geometry" : {
				"type" : "Point",
				"coordinates" : [ 9.7560715902, 46.5590170135, 3060.528712 ]
			},
			"properties" : {
				"OBJECTID" : 40,
				"HOEHE" : 3061,
				"NAME" : "Piz Bial",
				"SPRACHCODE" : "Rumantsch Grischun inkl. Lokalsprachen"
			}
		},
		{
			"type" : "Feature",
			"geometry" : {
				"type" : "Point",
				"coordinates" : [ 9.8678307785, 46.5714863698, 2951.498712 ]
			},
			"properties" : {
				"OBJECTID" : 41,
				"HOEHE" : 2952,
				"NAME" : "Crasta Mora",
				"SPRACHCODE" : "Rumantsch Grischun inkl. Lokalsprachen"
			}
		},
		{
			"type" : "Feature",
			"geometry" : {
				"type" : "Point",
				"coordinates" : [ 9.9652060349, 46.5697251239, 2962.520012 ]
			},
			"properties" : {
				"OBJECTID" : 42,
				"HOEHE" : 2963,
				"NAME" : "Piz Mezzaun",
				"SPRACHCODE" : "Rumantsch Grischun inkl. Lokalsprachen"
			}
		},
		{
			"type" : "Feature",
			"geometry" : {
				"type" : "Point",
				"coordinates" : [ 10.4748844008, 46.562282397, 3003.425012 ]
			},
			"properties" : {
				"OBJECTID" : 43,
				"HOEHE" : 3004,
				"NAME" : "Piz Costainas",
				"SPRACHCODE" : "Rumantsch Grischun inkl. Lokalsprachen"
			}
		},
		{
			"type" : "Feature",
			"geometry" : {
				"type" : "Point",
				"coordinates" : [ 10.4748844008, 46.562282397, 3003.425012 ]
			},
			"properties" : {
				"OBJECTID" : 44,
				"HOEHE" : 3004,
				"NAME" : "Furkelspitz",
				"SPRACHCODE" : "Hochdeutsch inkl. Lokalsprachen"
			}
		},
		{
			"type" : "Feature",
			"geometry" : {
				"type" : "Point",
				"coordinates" : [ 10.0786735081, 46.5751267694, 3070.187512 ]
			},
			"properties" : {
				"OBJECTID" : 45,
				"HOEHE" : 3071,
				"NAME" : "Piz Chaschauna",
				"SPRACHCODE" : "Rumantsch Grischun inkl. Lokalsprachen"
			}
		},
		{
			"type" : "Feature",
			"geometry" : {
				"type" : "Point",
				"coordinates" : [ 10.0786735081, 46.5751267694, 3070.187512 ]
			},
			"properties" : {
				"OBJECTID" : 46,
				"HOEHE" : 3071,
				"NAME" : "Piz Casana",
				"SPRACHCODE" : "Italienisch inkl. Lokalsprachen"
			}
		},
		{
			"type" : "Feature",
			"geometry" : {
				"type" : "Point",
				"coordinates" : [ 10.2874722101, 46.5703480777, 3179.911212 ]
			},
			"properties" : {
				"OBJECTID" : 47,
				"HOEHE" : 3180,
				"NAME" : "Piz Murtaröl",
				"SPRACHCODE" : "Rumantsch Grischun inkl. Lokalsprachen"
			}
		},
		{
			"type" : "Feature",
			"geometry" : {
				"type" : "Point",
				"coordinates" : [ 10.2874722101, 46.5703480777, 3179.911212 ]
			},
			"properties" : {
				"OBJECTID" : 48,
				"HOEHE" : 3180,
				"NAME" : "Cima la Casina",
				"SPRACHCODE" : "Italienisch inkl. Lokalsprachen"
			}
		},
		{
			"type" : "Feature",
			"geometry" : {
				"type" : "Point",
				"coordinates" : [ 10.4097541436, 46.5709934574, 2881.403712 ]
			},
			"properties" : {
				"OBJECTID" : 49,
				"HOEHE" : 2882,
				"NAME" : "Piz Lad",
				"SPRACHCODE" : "Rumantsch Grischun inkl. Lokalsprachen"
			}
		},
		{
			"type" : "Feature",
			"geometry" : {
				"type" : "Point",
				"coordinates" : [ 9.8363825152, 46.5964154302, 3266.400012 ]
			},
			"properties" : {
				"OBJECTID" : 50,
				"HOEHE" : 3267,
				"NAME" : "Piz Üertsch",
				"SPRACHCODE" : "Rumantsch Grischun inkl. Lokalsprachen"
			}
		},
		{
			"type" : "Feature",
			"geometry" : {
				"type" : "Point",
				"coordinates" : [ 10.1055334101, 46.6107968703, 3094.507512 ]
			},
			"properties" : {
				"OBJECTID" : 51,
				"HOEHE" : 3095,
				"NAME" : "Piz Serra",
				"SPRACHCODE" : "Rumantsch Grischun inkl. Lokalsprachen"
			}
		},
		{
			"type" : "Feature",
			"geometry" : {
				"type" : "Point",
				"coordinates" : [ 10.1390122552, 46.6110104111, 3125.478712 ]
			},
			"properties" : {
				"OBJECTID" : 52,
				"HOEHE" : 3126,
				"NAME" : "Piz da l'Acqua",
				"SPRACHCODE" : "Rumantsch Grischun inkl. Lokalsprachen"
			}
		},
		{
			"type" : "Feature",
			"geometry" : {
				"type" : "Point",
				"coordinates" : [ 9.8727842534, 46.6213052162, 3417.441212 ]
			},
			"properties" : {
				"OBJECTID" : 53,
				"HOEHE" : 3418,
				"NAME" : "Piz d'Es-cha",
				"SPRACHCODE" : "Rumantsch Grischun inkl. Lokalsprachen"
			}
		},
		{
			"type" : "Feature",
			"geometry" : {
				"type" : "Point",
				"coordinates" : [ 9.8727842534, 46.6213052162, 3417.441212 ]
			},
			"properties" : {
				"OBJECTID" : 54,
				"HOEHE" : 3418,
				"NAME" : "Piz Kesch",
				"SPRACHCODE" : "Rumantsch Grischun inkl. Lokalsprachen"
			}
		},
		{
			"type" : "Feature",
			"geometry" : {
				"type" : "Point",
				"coordinates" : [ 10.2909160176, 46.6187263869, 2967.815012 ]
			},
			"properties" : {
				"OBJECTID" : 55,
				"HOEHE" : 2968,
				"NAME" : "Piz Daint",
				"SPRACHCODE" : "Rumantsch Grischun inkl. Lokalsprachen"
			}
		},
		{
			"type" : "Feature",
			"geometry" : {
				"type" : "Point",
				"coordinates" : [ 10.0605111828, 46.6243324703, 3126.467512 ]
			},
			"properties" : {
				"OBJECTID" : 56,
				"HOEHE" : 3127,
				"NAME" : "Piz d'Esan",
				"SPRACHCODE" : "Rumantsch Grischun inkl. Lokalsprachen"
			}
		},
		{
			"type" : "Feature",
			"geometry" : {
				"type" : "Point",
				"coordinates" : [ 10.4920557918, 46.6153910286, 2762.477512 ]
			},
			"properties" : {
				"OBJECTID" : 57,
				"HOEHE" : 2763,
				"NAME" : "Piz Chavalatsch",
				"SPRACHCODE" : "Rumantsch Grischun inkl. Lokalsprachen"
			}
		},
		{
			"type" : "Feature",
			"geometry" : {
				"type" : "Point",
				"coordinates" : [ 10.0949100301, 46.6271654131, 3164.263712 ]
			},
			"properties" : {
				"OBJECTID" : 58,
				"HOEHE" : 3165,
				"NAME" : "Piz Quattervals",
				"SPRACHCODE" : "Rumantsch Grischun inkl. Lokalsprachen"
			}
		},
		{
			"type" : "Feature",
			"geometry" : {
				"type" : "Point",
				"coordinates" : [ 10.3998321944, 46.6385775954, 2908.098712 ]
			},
			"properties" : {
				"OBJECTID" : 59,
				"HOEHE" : 2909,
				"NAME" : "Piz Terza",
				"SPRACHCODE" : "Rumantsch Grischun inkl. Lokalsprachen"
			}
		},
		{
			"type" : "Feature",
			"geometry" : {
				"type" : "Point",
				"coordinates" : [ 10.3998321944, 46.6385775954, 2908.098712 ]
			},
			"properties" : {
				"OBJECTID" : 60,
				"HOEHE" : 2909,
				"NAME" : "Urtirolaspitz",
				"SPRACHCODE" : "Hochdeutsch inkl. Lokalsprachen"
			}
		},
		{
			"type" : "Feature",
			"geometry" : {
				"type" : "Point",
				"coordinates" : [ 9.8301832442, 46.6748738065, 3019.191212 ]
			},
			"properties" : {
				"OBJECTID" : 61,
				"HOEHE" : 3020,
				"NAME" : "Ducan Dador",
				"SPRACHCODE" : "Rumantsch Grischun inkl. Lokalsprachen"
			}
		},
		{
			"type" : "Feature",
			"geometry" : {
				"type" : "Point",
				"coordinates" : [ 9.8301832442, 46.6748738065, 3019.191212 ]
			},
			"properties" : {
				"OBJECTID" : 62,
				"HOEHE" : 3020,
				"NAME" : "Gletscher Ducan",
				"SPRACHCODE" : "Hochdeutsch inkl. Lokalsprachen"
			}
		},
		{
			"type" : "Feature",
			"geometry" : {
				"type" : "Point",
				"coordinates" : [ 9.9053875461, 46.6853495386, 3076.530012 ]
			},
			"properties" : {
				"OBJECTID" : 63,
				"HOEHE" : 3077,
				"NAME" : "Chüealphorn",
				"SPRACHCODE" : "Hochdeutsch inkl. Lokalsprachen"
			}
		},
		{
			"type" : "Feature",
			"geometry" : {
				"type" : "Point",
				"coordinates" : [ 10.2960638895, 46.6791542845, 3167.506212 ]
			},
			"properties" : {
				"OBJECTID" : 64,
				"HOEHE" : 3168,
				"NAME" : "Piz Tavrü",
				"SPRACHCODE" : "Rumantsch Grischun inkl. Lokalsprachen"
			}
		},
		{
			"type" : "Feature",
			"geometry" : {
				"type" : "Point",
				"coordinates" : [ 9.9626912901, 46.6870253644, 3228.448712 ]
			},
			"properties" : {
				"OBJECTID" : 65,
				"HOEHE" : 3229,
				"NAME" : "Piz Vadret",
				"SPRACHCODE" : "Rumantsch Grischun inkl. Lokalsprachen"
			}
		},
		{
			"type" : "Feature",
			"geometry" : {
				"type" : "Point",
				"coordinates" : [ 9.8514239123, 46.6895299803, 3062.460012 ]
			},
			"properties" : {
				"OBJECTID" : 66,
				"HOEHE" : 3063,
				"NAME" : "Hoch Ducan",
				"SPRACHCODE" : "Hochdeutsch inkl. Lokalsprachen"
			}
		},
		{
			"type" : "Feature",
			"geometry" : {
				"type" : "Point",
				"coordinates" : [ 9.8514239123, 46.6895299803, 3062.460012 ]
			},
			"properties" : {
				"OBJECTID" : 67,
				"HOEHE" : 3063,
				"NAME" : "Piz Ducan",
				"SPRACHCODE" : "Rumantsch Grischun inkl. Lokalsprachen"
			}
		},
		{
			"type" : "Feature",
			"geometry" : {
				"type" : "Point",
				"coordinates" : [ 9.9944135187, 46.6911753449, 3177.465012 ]
			},
			"properties" : {
				"OBJECTID" : 68,
				"HOEHE" : 3178,
				"NAME" : "Piz Sarsura",
				"SPRACHCODE" : "Rumantsch Grischun inkl. Lokalsprachen"
			}
		},
		{
			"type" : "Feature",
			"geometry" : {
				"type" : "Point",
				"coordinates" : [ 9.5950919168, 46.7090240755, 2905.538712 ]
			},
			"properties" : {
				"OBJECTID" : 69,
				"HOEHE" : 2906,
				"NAME" : "Lenzer Horn",
				"SPRACHCODE" : "Rumantsch Grischun inkl. Lokalsprachen"
			}
		},
		{
			"type" : "Feature",
			"geometry" : {
				"type" : "Point",
				"coordinates" : [ 10.2236279871, 46.708741571, 3165.985012 ]
			},
			"properties" : {
				"OBJECTID" : 70,
				"HOEHE" : 3167,
				"NAME" : "Piz Plavna Dadaint",
				"SPRACHCODE" : "Rumantsch Grischun inkl. Lokalsprachen"
			}
		},
		{
			"type" : "Feature",
			"geometry" : {
				"type" : "Point",
				"coordinates" : [ 10.4027978183, 46.7059349967, 3203.487512 ]
			},
			"properties" : {
				"OBJECTID" : 71,
				"HOEHE" : 3204,
				"NAME" : "Piz Sesvenna",
				"SPRACHCODE" : "Rumantsch Grischun inkl. Lokalsprachen"
			}
		},
		{
			"type" : "Feature",
			"geometry" : {
				"type" : "Point",
				"coordinates" : [ 9.8222183276, 46.7214136129, 2907.496212 ]
			},
			"properties" : {
				"OBJECTID" : 72,
				"HOEHE" : 2908,
				"NAME" : "Leidbachhorn",
				"SPRACHCODE" : "Hochdeutsch inkl. Lokalsprachen"
			}
		},
		{
			"type" : "Feature",
			"geometry" : {
				"type" : "Point",
				"coordinates" : [ 9.6139093781, 46.7378610198, 2979.740012 ]
			},
			"properties" : {
				"OBJECTID" : 73,
				"HOEHE" : 2980,
				"NAME" : "Aroser Rothorn",
				"SPRACHCODE" : "Rumantsch Grischun inkl. Lokalsprachen"
			}
		},
		{
			"type" : "Feature",
			"geometry" : {
				"type" : "Point",
				"coordinates" : [ 9.8778829311, 46.7345768415, 2814.537512 ]
			},
			"properties" : {
				"OBJECTID" : 74,
				"HOEHE" : 2815,
				"NAME" : "Wuosthorn",
				"SPRACHCODE" : "Hochdeutsch inkl. Lokalsprachen"
			}
		},
		{
			"type" : "Feature",
			"geometry" : {
				"type" : "Point",
				"coordinates" : [ 9.9417063922, 46.7357655518, 3145.527512 ]
			},
			"properties" : {
				"OBJECTID" : 75,
				"HOEHE" : 3146,
				"NAME" : "Schwarzhorn",
				"SPRACHCODE" : "Rumantsch Grischun inkl. Lokalsprachen"
			}
		},
		{
			"type" : "Feature",
			"geometry" : {
				"type" : "Point",
				"coordinates" : [ 10.3920707963, 46.7345125493, 3091.408712 ]
			},
			"properties" : {
				"OBJECTID" : 76,
				"HOEHE" : 3092,
				"NAME" : "Piz Cristanas",
				"SPRACHCODE" : "Rumantsch Grischun inkl. Lokalsprachen"
			}
		},
		{
			"type" : "Feature",
			"geometry" : {
				"type" : "Point",
				"coordinates" : [ 10.3390655667, 46.7396094878, 3098.096212 ]
			},
			"properties" : {
				"OBJECTID" : 77,
				"HOEHE" : 3099,
				"NAME" : "Piz Madlain",
				"SPRACHCODE" : "Rumantsch Grischun inkl. Lokalsprachen"
			}
		},
		{
			"type" : "Feature",
			"geometry" : {
				"type" : "Point",
				"coordinates" : [ 10.2794966915, 46.7444909047, 3172.471212 ]
			},
			"properties" : {
				"OBJECTID" : 78,
				"HOEHE" : 3173,
				"NAME" : "Piz Pisoc",
				"SPRACHCODE" : "Rumantsch Grischun inkl. Lokalsprachen"
			}
		},
		{
			"type" : "Feature",
			"geometry" : {
				"type" : "Point",
				"coordinates" : [ 9.9666258004, 46.7621231562, 3084.807512 ]
			},
			"properties" : {
				"OBJECTID" : 79,
				"HOEHE" : 3085,
				"NAME" : "Flüela Wisshorn",
				"SPRACHCODE" : "Hochdeutsch inkl. Lokalsprachen"
			}
		},
		{
			"type" : "Feature",
			"geometry" : {
				"type" : "Point",
				"coordinates" : [ 9.7345842808, 46.7809507139, 2780.875012 ]
			},
			"properties" : {
				"OBJECTID" : 80,
				"HOEHE" : 2781,
				"NAME" : "Tiejer Flue",
				"SPRACHCODE" : "Hochdeutsch inkl. Lokalsprachen"
			}
		},
		{
			"type" : "Feature",
			"geometry" : {
				"type" : "Point",
				"coordinates" : [ 10.3452596839, 46.7695491151, 3105.126212 ]
			},
			"properties" : {
				"OBJECTID" : 81,
				"HOEHE" : 3105,
				"NAME" : "Piz Lischana",
				"SPRACHCODE" : "Rumantsch Grischun inkl. Lokalsprachen"
			}
		},
		{
			"type" : "Feature",
			"geometry" : {
				"type" : "Point",
				"coordinates" : [ 10.0714332457, 46.798942157, 3409.721212 ]
			},
			"properties" : {
				"OBJECTID" : 82,
				"HOEHE" : 3410,
				"NAME" : "Piz Linard",
				"SPRACHCODE" : "Rumantsch Grischun inkl. Lokalsprachen"
			}
		},
		{
			"type" : "Feature",
			"geometry" : {
				"type" : "Point",
				"coordinates" : [ 9.7941987052, 46.8352136495, 2843.443712 ]
			},
			"properties" : {
				"OBJECTID" : 83,
				"HOEHE" : 2843,
				"NAME" : "Weissfluh",
				"SPRACHCODE" : "Hochdeutsch inkl. Lokalsprachen"
			}
		},
		{
			"type" : "Feature",
			"geometry" : {
				"type" : "Point",
				"coordinates" : [ 10.1188772582, 46.844121048, 3311.557512 ]
			},
			"properties" : {
				"OBJECTID" : 84,
				"HOEHE" : 3312,
				"NAME" : "Piz Buin Grond",
				"SPRACHCODE" : "Rumantsch Grischun inkl. Lokalsprachen"
			}
		},
		{
			"type" : "Feature",
			"geometry" : {
				"type" : "Point",
				"coordinates" : [ 9.1567828967, 46.8739246138, 3026.212512 ]
			},
			"properties" : {
				"OBJECTID" : 85,
				"HOEHE" : 3028,
				"NAME" : "Bündner Vorab",
				"SPRACHCODE" : "Hochdeutsch inkl. Lokalsprachen"
			}
		},
		{
			"type" : "Feature",
			"geometry" : {
				"type" : "Point",
				"coordinates" : [ 9.1529202773, 46.8798760005, 3016.506212 ]
			},
			"properties" : {
				"OBJECTID" : 86,
				"HOEHE" : 3018,
				"NAME" : "Glarner Vorab",
				"SPRACHCODE" : "Hochdeutsch inkl. Lokalsprachen"
			}
		},
		{
			"type" : "Feature",
			"geometry" : {
				"type" : "Point",
				"coordinates" : [ 10.2038535672, 46.8646234177, 3229.620012 ]
			},
			"properties" : {
				"OBJECTID" : 87,
				"HOEHE" : 3230,
				"NAME" : "Piz Blaisch Lunga",
				"SPRACHCODE" : "Rumantsch Grischun inkl. Lokalsprachen"
			}
		},
		{
			"type" : "Feature",
			"geometry" : {
				"type" : "Point",
				"coordinates" : [ 10.2038535672, 46.8646234177, 3229.620012 ]
			},
			"properties" : {
				"OBJECTID" : 88,
				"HOEHE" : 3230,
				"NAME" : "Augstenberg",
				"SPRACHCODE" : "Hochdeutsch inkl. Lokalsprachen"
			}
		},
		{
			"type" : "Feature",
			"geometry" : {
				"type" : "Point",
				"coordinates" : [ 9.9567000482, 46.8807855417, 2886.982512 ]
			},
			"properties" : {
				"OBJECTID" : 89,
				"HOEHE" : 2887,
				"NAME" : "Schildflue",
				"SPRACHCODE" : "Hochdeutsch inkl. Lokalsprachen"
			}
		},
		{
			"type" : "Feature",
			"geometry" : {
				"type" : "Point",
				"coordinates" : [ 9.3430856766, 46.8982749922, 3246.982512 ]
			},
			"properties" : {
				"OBJECTID" : 90,
				"HOEHE" : 3247,
				"NAME" : "Ringelspitz",
				"SPRACHCODE" : "Hochdeutsch inkl. Lokalsprachen"
			}
		},
		{
			"type" : "Feature",
			"geometry" : {
				"type" : "Point",
				"coordinates" : [ 9.3430856766, 46.8982749922, 3246.982512 ]
			},
			"properties" : {
				"OBJECTID" : 91,
				"HOEHE" : 3247,
				"NAME" : "Piz Barghis",
				"SPRACHCODE" : "Rumantsch Grischun inkl. Lokalsprachen"
			}
		},
		{
			"type" : "Feature",
			"geometry" : {
				"type" : "Point",
				"coordinates" : [ 10.0382475143, 46.8864561927, 3108.622512 ]
			},
			"properties" : {
				"OBJECTID" : 92,
				"HOEHE" : 3109,
				"NAME" : "Gross Litzner",
				"SPRACHCODE" : "Hochdeutsch inkl. Lokalsprachen"
			}
		},
		{
			"type" : "Feature",
			"geometry" : {
				"type" : "Point",
				"coordinates" : [ 9.4672717134, 46.8998897907, 2805.017512 ]
			},
			"properties" : {
				"OBJECTID" : 93,
				"HOEHE" : 2804,
				"NAME" : "Haldensteiner Calanda",
				"SPRACHCODE" : "Hochdeutsch inkl. Lokalsprachen"
			}
		},
		{
			"type" : "Feature",
			"geometry" : {
				"type" : "Point",
				"coordinates" : [ 9.239704042, 46.9078962493, 3098.202512 ]
			},
			"properties" : {
				"OBJECTID" : 94,
				"HOEHE" : 3099,
				"NAME" : "Piz Segnas",
				"SPRACHCODE" : "Rumantsch Grischun inkl. Lokalsprachen"
			}
		},
		{
			"type" : "Feature",
			"geometry" : {
				"type" : "Point",
				"coordinates" : [ 10.2274368996, 46.8907164518, 3397.121212 ]
			},
			"properties" : {
				"OBJECTID" : 95,
				"HOEHE" : 3398,
				"NAME" : "Piz Fenga",
				"SPRACHCODE" : "Rumantsch Grischun inkl. Lokalsprachen"
			}
		},
		{
			"type" : "Feature",
			"geometry" : {
				"type" : "Point",
				"coordinates" : [ 10.2274368996, 46.8907164518, 3397.121212 ]
			},
			"properties" : {
				"OBJECTID" : 96,
				"HOEHE" : 3398,
				"NAME" : "Fluchthorn",
				"SPRACHCODE" : "Hochdeutsch inkl. Lokalsprachen"
			}
		},
		{
			"type" : "Feature",
			"geometry" : {
				"type" : "Point",
				"coordinates" : [ 9.2515975816, 46.9227309154, 3057.001212 ]
			},
			"properties" : {
				"OBJECTID" : 97,
				"HOEHE" : 3056,
				"NAME" : "Piz Sardona",
				"SPRACHCODE" : "Rumantsch Grischun inkl. Lokalsprachen"
			}
		},
		{
			"type" : "Feature",
			"geometry" : {
				"type" : "Point",
				"coordinates" : [ 9.2515975816, 46.9227309154, 3057.001212 ]
			},
			"properties" : {
				"OBJECTID" : 98,
				"HOEHE" : 3056,
				"NAME" : "Surenstock",
				"SPRACHCODE" : "Hochdeutsch inkl. Lokalsprachen"
			}
		},
		{
			"type" : "Feature",
			"geometry" : {
				"type" : "Point",
				"coordinates" : [ 10.3787328467, 46.9006630421, 3295.118712 ]
			},
			"properties" : {
				"OBJECTID" : 99,
				"HOEHE" : 3296,
				"NAME" : "Muttler",
				"SPRACHCODE" : "Hochdeutsch inkl. Lokalsprachen"
			}
		},
		{
			"type" : "Feature",
			"geometry" : {
				"type" : "Point",
				"coordinates" : [ 9.8721754713, 46.9310684197, 2825.815012 ]
			},
			"properties" : {
				"OBJECTID" : 100,
				"HOEHE" : 2825,
				"NAME" : "Madrisahorn",
				"SPRACHCODE" : "Hochdeutsch inkl. Lokalsprachen"
			}
		},
		{
			"type" : "Feature",
			"geometry" : {
				"type" : "Point",
				"coordinates" : [ 9.3867173527, 46.9591600362, 2843.465012 ]
			},
			"properties" : {
				"OBJECTID" : 101,
				"HOEHE" : 2844,
				"NAME" : "Pizol",
				"SPRACHCODE" : "Rumantsch Grischun inkl. Lokalsprachen"
			}
		},
		{
			"type" : "Feature",
			"geometry" : {
				"type" : "Point",
				"coordinates" : [ 9.8397337123, 47.0126775144, 2816.660012 ]
			},
			"properties" : {
				"OBJECTID" : 102,
				"HOEHE" : 2817,
				"NAME" : "Sulzfluh",
				"SPRACHCODE" : "Hochdeutsch inkl. Lokalsprachen"
			}
		},
		{
			"type" : "Feature",
			"geometry" : {
				"type" : "Point",
				"coordinates" : [ 9.7073922308, 47.0538327548, 2964.517512 ]
			},
			"properties" : {
				"OBJECTID" : 103,
				"HOEHE" : 2965,
				"NAME" : "Schesaplana",
				"SPRACHCODE" : "Rumantsch Grischun inkl. Lokalsprachen"
			}
		},
		{
			"type" : "Feature",
			"geometry" : {
				"type" : "Point",
				"coordinates" : [ 9.3432398229, 47.2494259052, 2501.773712 ]
			},
			"properties" : {
				"OBJECTID" : 104,
				"HOEHE" : 2502,
				"NAME" : "Säntis",
				"SPRACHCODE" : "Hochdeutsch inkl. Lokalsprachen"
			}
		},
		{
			"type" : "Feature",
			"geometry" : {
				"type" : "Point",
				"coordinates" : [ 8.4661282139, 46.5175746458, 3191.238712 ]
			},
			"properties" : {
				"OBJECTID" : 105,
				"HOEHE" : 3192,
				"NAME" : "Pizzo Rotondo",
				"SPRACHCODE" : "Italienisch inkl. Lokalsprachen"
			}
		},
		{
			"type" : "Feature",
			"geometry" : {
				"type" : "Point",
				"coordinates" : [ 8.535210632, 46.8617624149, 2928.828712 ]
			},
			"properties" : {
				"OBJECTID" : 106,
				"HOEHE" : 2929,
				"NAME" : "Uri Rotstock",
				"SPRACHCODE" : "Hochdeutsch inkl. Lokalsprachen"
			}
		},
		{
			"type" : "Feature",
			"geometry" : {
				"type" : "Point",
				"coordinates" : [ 8.5500118286, 46.8477074363, 2951.586212 ]
			},
			"properties" : {
				"OBJECTID" : 107,
				"HOEHE" : 2952,
				"NAME" : "Brunnistock",
				"SPRACHCODE" : "Hochdeutsch inkl. Lokalsprachen"
			}
		},
		{
			"type" : "Feature",
			"geometry" : {
				"type" : "Point",
				"coordinates" : [ 8.3440847382, 46.8006766168, 2700.097512 ]
			},
			"properties" : {
				"OBJECTID" : 108,
				"HOEHE" : 2700,
				"NAME" : "Rotsandnollen",
				"SPRACHCODE" : "Hochdeutsch inkl. Lokalsprachen"
			}
		},
		{
			"type" : "Feature",
			"geometry" : {
				"type" : "Point",
				"coordinates" : [ 8.5245986895, 46.7867691481, 3197.590012 ]
			},
			"properties" : {
				"OBJECTID" : 109,
				"HOEHE" : 3198,
				"NAME" : "Gross Spannort",
				"SPRACHCODE" : "Hochdeutsch inkl. Lokalsprachen"
			}
		},
		{
			"type" : "Feature",
			"geometry" : {
				"type" : "Point",
				"coordinates" : [ 8.4377801183, 46.772038519, 3237.902512 ]
			},
			"properties" : {
				"OBJECTID" : 110,
				"HOEHE" : 3238,
				"NAME" : "Titlis",
				"SPRACHCODE" : "Hochdeutsch inkl. Lokalsprachen"
			}
		},
		{
			"type" : "Feature",
			"geometry" : {
				"type" : "Point",
				"coordinates" : [ 8.4362640961, 46.7521719643, 2993.277512 ]
			},
			"properties" : {
				"OBJECTID" : 111,
				"HOEHE" : 2994,
				"NAME" : "Fünffingerstöck",
				"SPRACHCODE" : "Hochdeutsch inkl. Lokalsprachen"
			}
		},
		{
			"type" : "Feature",
			"geometry" : {
				"type" : "Point",
				"coordinates" : [ 8.3248810137, 46.745487881, 2579.342512 ]
			},
			"properties" : {
				"OBJECTID" : 112,
				"HOEHE" : 2580,
				"NAME" : "Tällistock",
				"SPRACHCODE" : "Hochdeutsch inkl. Lokalsprachen"
			}
		},
		{
			"type" : "Feature",
			"geometry" : {
				"type" : "Point",
				"coordinates" : [ 8.4551204017, 46.6989317477, 3501.340012 ]
			},
			"properties" : {
				"OBJECTID" : 113,
				"HOEHE" : 3502,
				"NAME" : "Sustenhorn",
				"SPRACHCODE" : "Hochdeutsch inkl. Lokalsprachen"
			}
		},
		{
			"type" : "Feature",
			"geometry" : {
				"type" : "Point",
				"coordinates" : [ 8.3108283442, 46.6917746152, 2922.977512 ]
			},
			"properties" : {
				"OBJECTID" : 114,
				"HOEHE" : 2923,
				"NAME" : "Mährenhorn",
				"SPRACHCODE" : "Hochdeutsch inkl. Lokalsprachen"
			}
		},
		{
			"type" : "Feature",
			"geometry" : {
				"type" : "Point",
				"coordinates" : [ 8.0755629644, 46.6860963607, 2927.355012 ]
			},
			"properties" : {
				"OBJECTID" : 115,
				"HOEHE" : 2928,
				"NAME" : "Schwarzhoren",
				"SPRACHCODE" : "Hochdeutsch inkl. Lokalsprachen"
			}
		},
		{
			"type" : "Feature",
			"geometry" : {
				"type" : "Point",
				"coordinates" : [ 8.4182583254, 46.652186494, 3553.346212 ]
			},
			"properties" : {
				"OBJECTID" : 116,
				"HOEHE" : 3554,
				"NAME" : "Eggstock",
				"SPRACHCODE" : "Hochdeutsch inkl. Lokalsprachen"
			}
		},
		{
			"type" : "Feature",
			"geometry" : {
				"type" : "Point",
				"coordinates" : [ 8.4219963772, 46.6479019608, 3607.527512 ]
			},
			"properties" : {
				"OBJECTID" : 117,
				"HOEHE" : 3608,
				"NAME" : "Schneestock",
				"SPRACHCODE" : "Hochdeutsch inkl. Lokalsprachen"
			}
		},
		{
			"type" : "Feature",
			"geometry" : {
				"type" : "Point",
				"coordinates" : [ 8.2588592477, 46.6322717801, 3276.671212 ]
			},
			"properties" : {
				"OBJECTID" : 118,
				"HOEHE" : 3282,
				"NAME" : "Ritzlihoren",
				"SPRACHCODE" : "Hochdeutsch inkl. Lokalsprachen"
			}
		},
		{
			"type" : "Feature",
			"geometry" : {
				"type" : "Point",
				"coordinates" : [ 8.1181418553, 46.5898931329, 4077.900012 ]
			},
			"properties" : {
				"OBJECTID" : 119,
				"HOEHE" : 4078,
				"NAME" : "Schreckhorn",
				"SPRACHCODE" : "Hochdeutsch inkl. Lokalsprachen"
			}
		},
		{
			"type" : "Feature",
			"geometry" : {
				"type" : "Point",
				"coordinates" : [ 7.8167438438, 46.5929082498, 2776.576212 ]
			},
			"properties" : {
				"OBJECTID" : 120,
				"HOEHE" : 2777,
				"NAME" : "Schwalmere",
				"SPRACHCODE" : "Hochdeutsch inkl. Lokalsprachen"
			}
		},
		{
			"type" : "Feature",
			"geometry" : {
				"type" : "Point",
				"coordinates" : [ 8.2395236645, 46.5865791821, 3246.185012 ]
			},
			"properties" : {
				"OBJECTID" : 121,
				"HOEHE" : 3247,
				"NAME" : "Bächlistock",
				"SPRACHCODE" : "Hochdeutsch inkl. Lokalsprachen"
			}
		},
		{
			"type" : "Feature",
			"geometry" : {
				"type" : "Point",
				"coordinates" : [ 8.1283102149, 46.5833025113, 4041.043712 ]
			},
			"properties" : {
				"OBJECTID" : 122,
				"HOEHE" : 4042,
				"NAME" : "Lauteraarhorn",
				"SPRACHCODE" : "Hochdeutsch inkl. Lokalsprachen"
			}
		},
		{
			"type" : "Feature",
			"geometry" : {
				"type" : "Point",
				"coordinates" : [ 8.0052826225, 46.5775977991, 3969.476212 ]
			},
			"properties" : {
				"OBJECTID" : 123,
				"HOEHE" : 3970,
				"NAME" : "Eiger",
				"SPRACHCODE" : "Hochdeutsch inkl. Lokalsprachen"
			}
		},
		{
			"type" : "Feature",
			"geometry" : {
				"type" : "Point",
				"coordinates" : [ 7.9972721073, 46.5584978672, 4106.471212 ]
			},
			"properties" : {
				"OBJECTID" : 124,
				"HOEHE" : 4107,
				"NAME" : "Mönch",
				"SPRACHCODE" : "Hochdeutsch inkl. Lokalsprachen"
			}
		},
		{
			"type" : "Feature",
			"geometry" : {
				"type" : "Point",
				"coordinates" : [ 8.4271477492, 46.5465567249, 3098.641212 ]
			},
			"properties" : {
				"OBJECTID" : 125,
				"HOEHE" : 3099,
				"NAME" : "Gross Muttenhorn",
				"SPRACHCODE" : "Hochdeutsch inkl. Lokalsprachen"
			}
		},
		{
			"type" : "Feature",
			"geometry" : {
				"type" : "Point",
				"coordinates" : [ 7.9625896121, 46.5367823833, 4157.920012 ]
			},
			"properties" : {
				"OBJECTID" : 126,
				"HOEHE" : 4158,
				"NAME" : "Jungfrau",
				"SPRACHCODE" : "Hochdeutsch inkl. Lokalsprachen"
			}
		},
		{
			"type" : "Feature",
			"geometry" : {
				"type" : "Point",
				"coordinates" : [ 7.8272789901, 46.5115947455, 3435.568712 ]
			},
			"properties" : {
				"OBJECTID" : 127,
				"HOEHE" : 3436,
				"NAME" : "Gspaltenhorn",
				"SPRACHCODE" : "Hochdeutsch inkl. Lokalsprachen"
			}
		},
		{
			"type" : "Feature",
			"geometry" : {
				"type" : "Point",
				"coordinates" : [ 8.0030806826, 46.1570554852, 4009.757512 ]
			},
			"properties" : {
				"OBJECTID" : 128,
				"HOEHE" : 4010,
				"NAME" : "Lagginhorn",
				"SPRACHCODE" : "Hochdeutsch inkl. Lokalsprachen"
			}
		},
		{
			"type" : "Feature",
			"geometry" : {
				"type" : "Point",
				"coordinates" : [ 7.4893268739, 46.4971210445, 2761.662512 ]
			},
			"properties" : {
				"OBJECTID" : 129,
				"HOEHE" : 2762,
				"NAME" : "Albristhore",
				"SPRACHCODE" : "Hochdeutsch inkl. Lokalsprachen"
			}
		},
		{
			"type" : "Feature",
			"geometry" : {
				"type" : "Point",
				"coordinates" : [ 7.9326087713, 46.4982091001, 3891.885012 ]
			},
			"properties" : {
				"OBJECTID" : 130,
				"HOEHE" : 3892,
				"NAME" : "Mittaghorn",
				"SPRACHCODE" : "Hochdeutsch inkl. Lokalsprachen"
			}
		},
		{
			"type" : "Feature",
			"geometry" : {
				"type" : "Point",
				"coordinates" : [ 7.9100510931, 46.4869888746, 3753.687512 ]
			},
			"properties" : {
				"OBJECTID" : 131,
				"HOEHE" : 3754,
				"NAME" : "Grosshorn",
				"SPRACHCODE" : "Hochdeutsch inkl. Lokalsprachen"
			}
		},
		{
			"type" : "Feature",
			"geometry" : {
				"type" : "Point",
				"coordinates" : [ 7.8767999329, 46.4785271311, 3779.092512 ]
			},
			"properties" : {
				"OBJECTID" : 132,
				"HOEHE" : 3780,
				"NAME" : "Breithorn",
				"SPRACHCODE" : "Hochdeutsch inkl. Lokalsprachen"
			}
		},
		{
			"type" : "Feature",
			"geometry" : {
				"type" : "Point",
				"coordinates" : [ 7.9936705751, 46.465148871, 4192.862512 ]
			},
			"properties" : {
				"OBJECTID" : 133,
				"HOEHE" : 4193,
				"NAME" : "Aletschhorn",
				"SPRACHCODE" : "Hochdeutsch inkl. Lokalsprachen"
			}
		},
		{
			"type" : "Feature",
			"geometry" : {
				"type" : "Point",
				"coordinates" : [ 7.9466236703, 46.4515629468, 3796.166212 ]
			},
			"properties" : {
				"OBJECTID" : 134,
				"HOEHE" : 3797,
				"NAME" : "Schinhorn",
				"SPRACHCODE" : "Hochdeutsch inkl. Lokalsprachen"
			}
		},
		{
			"type" : "Feature",
			"geometry" : {
				"type" : "Point",
				"coordinates" : [ 8.0056382198, 46.441044459, 3739.501212 ]
			},
			"properties" : {
				"OBJECTID" : 135,
				"HOEHE" : 3740,
				"NAME" : "Geisshorn",
				"SPRACHCODE" : "Hochdeutsch inkl. Lokalsprachen"
			}
		},
		{
			"type" : "Feature",
			"geometry" : {
				"type" : "Point",
				"coordinates" : [ 7.5841015093, 46.4167566057, 3145.950012 ]
			},
			"properties" : {
				"OBJECTID" : 136,
				"HOEHE" : 3146,
				"NAME" : "Steghorn",
				"SPRACHCODE" : "Hochdeutsch inkl. Lokalsprachen"
			}
		},
		{
			"type" : "Feature",
			"geometry" : {
				"type" : "Point",
				"coordinates" : [ 7.6784490464, 46.4289399377, 3628.700012 ]
			},
			"properties" : {
				"OBJECTID" : 137,
				"HOEHE" : 3629,
				"NAME" : "Altels",
				"SPRACHCODE" : "Hochdeutsch inkl. Lokalsprachen"
			}
		},
		{
			"type" : "Feature",
			"geometry" : {
				"type" : "Point",
				"coordinates" : [ 7.5624170133, 46.4124661403, 3242.438712 ]
			},
			"properties" : {
				"OBJECTID" : 138,
				"HOEHE" : 3243,
				"NAME" : "Grossstrubel",
				"SPRACHCODE" : "Hochdeutsch inkl. Lokalsprachen"
			}
		},
		{
			"type" : "Feature",
			"geometry" : {
				"type" : "Point",
				"coordinates" : [ 7.6935178459, 46.4250625076, 3698.153712 ]
			},
			"properties" : {
				"OBJECTID" : 139,
				"HOEHE" : 3699,
				"NAME" : "Balmhorn",
				"SPRACHCODE" : "Hochdeutsch inkl. Lokalsprachen"
			}
		},
		{
			"type" : "Feature",
			"geometry" : {
				"type" : "Point",
				"coordinates" : [ 8.3186273511, 46.3864255261, 3235.760012 ]
			},
			"properties" : {
				"OBJECTID" : 140,
				"HOEHE" : 3236,
				"NAME" : "Ofenhorn",
				"SPRACHCODE" : "Hochdeutsch inkl. Lokalsprachen"
			}
		},
		{
			"type" : "Feature",
			"geometry" : {
				"type" : "Point",
				"coordinates" : [ 8.3186273511, 46.3864255261, 3235.760012 ]
			},
			"properties" : {
				"OBJECTID" : 141,
				"HOEHE" : 3236,
				"NAME" : "Punta d'Arbola",
				"SPRACHCODE" : "Italienisch inkl. Lokalsprachen"
			}
		},
		{
			"type" : "Feature",
			"geometry" : {
				"type" : "Point",
				"coordinates" : [ 7.8938635773, 46.4189550404, 3784.481212 ]
			},
			"properties" : {
				"OBJECTID" : 142,
				"HOEHE" : 3785,
				"NAME" : "Breithorn",
				"SPRACHCODE" : "Hochdeutsch inkl. Lokalsprachen"
			}
		},
		{
			"type" : "Feature",
			"geometry" : {
				"type" : "Point",
				"coordinates" : [ 7.9259950863, 46.4131553681, 3819.837512 ]
			},
			"properties" : {
				"OBJECTID" : 143,
				"HOEHE" : 3821,
				"NAME" : "Nesthorn",
				"SPRACHCODE" : "Hochdeutsch inkl. Lokalsprachen"
			}
		},
		{
			"type" : "Feature",
			"geometry" : {
				"type" : "Point",
				"coordinates" : [ 7.6543017596, 46.4135549976, 3447.842512 ]
			},
			"properties" : {
				"OBJECTID" : 144,
				"HOEHE" : 3448,
				"NAME" : "Rinderhorn",
				"SPRACHCODE" : "Hochdeutsch inkl. Lokalsprachen"
			}
		},
		{
			"type" : "Feature",
			"geometry" : {
				"type" : "Point",
				"coordinates" : [ 7.5286307285, 46.4003435111, 3243.070012 ]
			},
			"properties" : {
				"OBJECTID" : 145,
				"HOEHE" : 3244,
				"NAME" : "Wildstrubel",
				"SPRACHCODE" : "Hochdeutsch inkl. Lokalsprachen"
			}
		},
		{
			"type" : "Feature",
			"geometry" : {
				"type" : "Point",
				"coordinates" : [ 8.4404871045, 46.3041512003, 2748.065012 ]
			},
			"properties" : {
				"OBJECTID" : 146,
				"HOEHE" : 2748,
				"NAME" : "Batnall",
				"SPRACHCODE" : "Hochdeutsch inkl. Lokalsprachen"
			}
		},
		{
			"type" : "Feature",
			"geometry" : {
				"type" : "Point",
				"coordinates" : [ 8.4404871045, 46.3041512003, 2748.065012 ]
			},
			"properties" : {
				"OBJECTID" : 147,
				"HOEHE" : 2748,
				"NAME" : "Madone",
				"SPRACHCODE" : "Italienisch inkl. Lokalsprachen"
			}
		},
		{
			"type" : "Feature",
			"geometry" : {
				"type" : "Point",
				"coordinates" : [ 7.7072430533, 46.4084589079, 3179.740012 ]
			},
			"properties" : {
				"OBJECTID" : 148,
				"HOEHE" : 3180,
				"NAME" : "Ferdenrothorn",
				"SPRACHCODE" : "Hochdeutsch inkl. Lokalsprachen"
			}
		},
		{
			"type" : "Feature",
			"geometry" : {
				"type" : "Point",
				"coordinates" : [ 7.8507669058, 46.391556128, 3933.141212 ]
			},
			"properties" : {
				"OBJECTID" : 149,
				"HOEHE" : 3934,
				"NAME" : "Bietschhorn",
				"SPRACHCODE" : "Hochdeutsch inkl. Lokalsprachen"
			}
		},
		{
			"type" : "Feature",
			"geometry" : {
				"type" : "Point",
				"coordinates" : [ 7.1475592747, 46.3820785161, 2547.727512 ]
			},
			"properties" : {
				"OBJECTID" : 150,
				"HOEHE" : 2548,
				"NAME" : "Le Tarent",
				"SPRACHCODE" : "Franzoesisch inkl. Lokalsprachen"
			}
		},
		{
			"type" : "Feature",
			"geometry" : {
				"type" : "Point",
				"coordinates" : [ 7.8105751242, 46.3785938643, 3306.122512 ]
			},
			"properties" : {
				"OBJECTID" : 151,
				"HOEHE" : 3307,
				"NAME" : "Wilerhorn",
				"SPRACHCODE" : "Hochdeutsch inkl. Lokalsprachen"
			}
		},
		{
			"type" : "Feature",
			"geometry" : {
				"type" : "Point",
				"coordinates" : [ 8.3077072975, 46.4258821854, 3373.743712 ]
			},
			"properties" : {
				"OBJECTID" : 152,
				"HOEHE" : 3374,
				"NAME" : "Corno Cieco",
				"SPRACHCODE" : "Italienisch inkl. Lokalsprachen"
			}
		},
		{
			"type" : "Feature",
			"geometry" : {
				"type" : "Point",
				"coordinates" : [ 8.3077072975, 46.4258821854, 3373.743712 ]
			},
			"properties" : {
				"OBJECTID" : 153,
				"HOEHE" : 3374,
				"NAME" : "Blinnenhorn",
				"SPRACHCODE" : "Hochdeutsch inkl. Lokalsprachen"
			}
		},
		{
			"type" : "Feature",
			"geometry" : {
				"type" : "Point",
				"coordinates" : [ 7.2618536349, 46.3374603545, 2924.006212 ]
			},
			"properties" : {
				"OBJECTID" : 154,
				"HOEHE" : 2924,
				"NAME" : "Mont Brun",
				"SPRACHCODE" : "Franzoesisch inkl. Lokalsprachen"
			}
		},
		{
			"type" : "Feature",
			"geometry" : {
				"type" : "Point",
				"coordinates" : [ 7.2618536349, 46.3374603545, 2924.006212 ]
			},
			"properties" : {
				"OBJECTID" : 155,
				"HOEHE" : 2924,
				"NAME" : "Sanetschhore",
				"SPRACHCODE" : "Hochdeutsch inkl. Lokalsprachen"
			}
		},
		{
			"type" : "Feature",
			"geometry" : {
				"type" : "Point",
				"coordinates" : [ 8.5367111132, 46.4647463394, 2911.576212 ]
			},
			"properties" : {
				"OBJECTID" : 156,
				"HOEHE" : 2912,
				"NAME" : "Cristallina",
				"SPRACHCODE" : "Italienisch inkl. Lokalsprachen"
			}
		},
		{
			"type" : "Feature",
			"geometry" : {
				"type" : "Point",
				"coordinates" : [ 7.1552020426, 46.2527739273, 2903.206212 ]
			},
			"properties" : {
				"OBJECTID" : 157,
				"HOEHE" : 2904,
				"NAME" : "Tête à Pierre Grept",
				"SPRACHCODE" : "Franzoesisch inkl. Lokalsprachen"
			}
		},
		{
			"type" : "Feature",
			"geometry" : {
				"type" : "Point",
				"coordinates" : [ 7.195043185, 46.2402658394, 2968.926212 ]
			},
			"properties" : {
				"OBJECTID" : 158,
				"HOEHE" : 2969,
				"NAME" : "Haut de Cry",
				"SPRACHCODE" : "Franzoesisch inkl. Lokalsprachen"
			}
		},
		{
			"type" : "Feature",
			"geometry" : {
				"type" : "Point",
				"coordinates" : [ 7.6537182607, 46.2390744806, 3024.726212 ]
			},
			"properties" : {
				"OBJECTID" : 159,
				"HOEHE" : 3025,
				"NAME" : "Bella Tola",
				"SPRACHCODE" : "Franzoesisch inkl. Lokalsprachen"
			}
		},
		{
			"type" : "Feature",
			"geometry" : {
				"type" : "Point",
				"coordinates" : [ 7.1261464843, 46.237182743, 3050.922512 ]
			},
			"properties" : {
				"OBJECTID" : 160,
				"HOEHE" : 3051,
				"NAME" : "Grand Muveran",
				"SPRACHCODE" : "Franzoesisch inkl. Lokalsprachen"
			}
		},
		{
			"type" : "Feature",
			"geometry" : {
				"type" : "Point",
				"coordinates" : [ 7.1130293449, 46.1786631213, 2898.956212 ]
			},
			"properties" : {
				"OBJECTID" : 161,
				"HOEHE" : 2899,
				"NAME" : "Grand Chavalard",
				"SPRACHCODE" : "Franzoesisch inkl. Lokalsprachen"
			}
		},
		{
			"type" : "Feature",
			"geometry" : {
				"type" : "Point",
				"coordinates" : [ 8.5430171279, 46.43441677, 2863.855012 ]
			},
			"properties" : {
				"OBJECTID" : 162,
				"HOEHE" : 2864,
				"NAME" : "Poncione di Braga",
				"SPRACHCODE" : "Italienisch inkl. Lokalsprachen"
			}
		},
		{
			"type" : "Feature",
			"geometry" : {
				"type" : "Point",
				"coordinates" : [ 8.0024849314, 46.1671729435, 3984.758712 ]
			},
			"properties" : {
				"OBJECTID" : 163,
				"HOEHE" : 3985,
				"NAME" : "Fletschhorn",
				"SPRACHCODE" : "Hochdeutsch inkl. Lokalsprachen"
			}
		},
		{
			"type" : "Feature",
			"geometry" : {
				"type" : "Point",
				"coordinates" : [ 7.5189692831, 46.1680982042, 3148.717512 ]
			},
			"properties" : {
				"OBJECTID" : 164,
				"HOEHE" : 3149,
				"NAME" : "Becs de Bosson",
				"SPRACHCODE" : "Franzoesisch inkl. Lokalsprachen"
			}
		},
		{
			"type" : "Feature",
			"geometry" : {
				"type" : "Point",
				"coordinates" : [ 7.6708972067, 46.14245907, 3607.903712 ]
			},
			"properties" : {
				"OBJECTID" : 165,
				"HOEHE" : 3609,
				"NAME" : "Les Diablons",
				"SPRACHCODE" : "Franzoesisch inkl. Lokalsprachen"
			}
		},
		{
			"type" : "Feature",
			"geometry" : {
				"type" : "Point",
				"coordinates" : [ 7.1014743988, 45.8591970233, 3237.117512 ]
			},
			"properties" : {
				"OBJECTID" : 166,
				"HOEHE" : 3238,
				"NAME" : "Grand Golliat",
				"SPRACHCODE" : "Franzoesisch inkl. Lokalsprachen"
			}
		},
		{
			"type" : "Feature",
			"geometry" : {
				"type" : "Point",
				"coordinates" : [ 7.3660836966, 45.9041445514, 3517.683712 ]
			},
			"properties" : {
				"OBJECTID" : 167,
				"HOEHE" : 3518,
				"NAME" : "Mont Gelé",
				"SPRACHCODE" : "Franzoesisch inkl. Lokalsprachen"
			}
		},
		{
			"type" : "Feature",
			"geometry" : {
				"type" : "Point",
				"coordinates" : [ 7.5466596369, 46.5512950895, 2652.148712 ]
			},
			"properties" : {
				"OBJECTID" : 168,
				"HOEHE" : 2652,
				"NAME" : "Männliflue",
				"SPRACHCODE" : "Hochdeutsch inkl. Lokalsprachen"
			}
		},
		{
			"type" : "Feature",
			"geometry" : {
				"type" : "Point",
				"coordinates" : [ 7.1891089066, 46.3039048536, 3209.780012 ]
			},
			"properties" : {
				"OBJECTID" : 169,
				"HOEHE" : 3210,
				"NAME" : "Sommet des Diablerets",
				"SPRACHCODE" : "Franzoesisch inkl. Lokalsprachen"
			}
		},
		{
			"type" : "Feature",
			"geometry" : {
				"type" : "Point",
				"coordinates" : [ 7.6001033637, 46.4619662954, 3048.172512 ]
			},
			"properties" : {
				"OBJECTID" : 170,
				"HOEHE" : 3049,
				"NAME" : "Vordere Loner",
				"SPRACHCODE" : "Hochdeutsch inkl. Lokalsprachen"
			}
		},
		{
			"type" : "Feature",
			"geometry" : {
				"type" : "Point",
				"coordinates" : [ 6.9232443225, 46.1610804737, 3256.977512 ]
			},
			"properties" : {
				"OBJECTID" : 171,
				"HOEHE" : 3257,
				"NAME" : "Haute Cime",
				"SPRACHCODE" : "Franzoesisch inkl. Lokalsprachen"
			}
		},
		{
			"type" : "Feature",
			"geometry" : {
				"type" : "Point",
				"coordinates" : [ 8.1261673223, 46.5373012393, 4273.311212 ]
			},
			"properties" : {
				"OBJECTID" : 172,
				"HOEHE" : 4274,
				"NAME" : "Finsteraarhorn",
				"SPRACHCODE" : "Hochdeutsch inkl. Lokalsprachen"
			}
		},
		{
			"type" : "Feature",
			"geometry" : {
				"type" : "Point",
				"coordinates" : [ 8.4641721128, 46.3446434102, 2863.038712 ]
			},
			"properties" : {
				"OBJECTID" : 173,
				"HOEHE" : 2863,
				"NAME" : "Wandfluhhorn",
				"SPRACHCODE" : "Hochdeutsch inkl. Lokalsprachen"
			}
		},
		{
			"type" : "Feature",
			"geometry" : {
				"type" : "Point",
				"coordinates" : [ 8.4641721128, 46.3446434102, 2863.038712 ]
			},
			"properties" : {
				"OBJECTID" : 174,
				"HOEHE" : 2863,
				"NAME" : "Pizzo Bìela",
				"SPRACHCODE" : "Italienisch inkl. Lokalsprachen"
			}
		},
		{
			"type" : "Feature",
			"geometry" : {
				"type" : "Point",
				"coordinates" : [ 7.9990765313, 46.6748349797, 2680.472512 ]
			},
			"properties" : {
				"OBJECTID" : 175,
				"HOEHE" : 2681,
				"NAME" : "Faulhorn",
				"SPRACHCODE" : "Hochdeutsch inkl. Lokalsprachen"
			}
		},
		{
			"type" : "Feature",
			"geometry" : {
				"type" : "Point",
				"coordinates" : [ 6.8727611745, 46.0519290319, 2830.903712 ]
			},
			"properties" : {
				"OBJECTID" : 176,
				"HOEHE" : 2831,
				"NAME" : "Le Cheval Blanc",
				"SPRACHCODE" : "Franzoesisch inkl. Lokalsprachen"
			}
		},
		{
			"type" : "Feature",
			"geometry" : {
				"type" : "Point",
				"coordinates" : [ 6.9245999255, 46.1268632949, 3219.926212 ]
			},
			"properties" : {
				"OBJECTID" : 177,
				"HOEHE" : 3220,
				"NAME" : "Tour Sallière",
				"SPRACHCODE" : "Franzoesisch inkl. Lokalsprachen"
			}
		},
		{
			"type" : "Feature",
			"geometry" : {
				"type" : "Point",
				"coordinates" : [ 7.2308086666, 46.0095205112, 3083.746212 ]
			},
			"properties" : {
				"OBJECTID" : 178,
				"HOEHE" : 3084,
				"NAME" : "Mont Rogneux",
				"SPRACHCODE" : "Franzoesisch inkl. Lokalsprachen"
			}
		},
		{
			"type" : "Feature",
			"geometry" : {
				"type" : "Point",
				"coordinates" : [ 7.2677090998, 45.984025499, 3662.857512 ]
			},
			"properties" : {
				"OBJECTID" : 179,
				"HOEHE" : 3663,
				"NAME" : "Petit Combin",
				"SPRACHCODE" : "Franzoesisch inkl. Lokalsprachen"
			}
		},
		{
			"type" : "Feature",
			"geometry" : {
				"type" : "Point",
				"coordinates" : [ 7.4254505678, 46.0713525836, 3489.405012 ]
			},
			"properties" : {
				"OBJECTID" : 180,
				"HOEHE" : 3490,
				"NAME" : "Pointe de Vouasson",
				"SPRACHCODE" : "Franzoesisch inkl. Lokalsprachen"
			}
		},
		{
			"type" : "Feature",
			"geometry" : {
				"type" : "Point",
				"coordinates" : [ 7.5279223994, 46.0507799463, 3417.850012 ]
			},
			"properties" : {
				"OBJECTID" : 181,
				"HOEHE" : 3418,
				"NAME" : "Grande Dent de Veisivi",
				"SPRACHCODE" : "Franzoesisch inkl. Lokalsprachen"
			}
		},
		{
			"type" : "Feature",
			"geometry" : {
				"type" : "Point",
				"coordinates" : [ 7.6115420179, 46.0521097832, 3961.305012 ]
			},
			"properties" : {
				"OBJECTID" : 182,
				"HOEHE" : 3962,
				"NAME" : "Grand Cornier",
				"SPRACHCODE" : "Franzoesisch inkl. Lokalsprachen"
			}
		},
		{
			"type" : "Feature",
			"geometry" : {
				"type" : "Point",
				"coordinates" : [ 7.7852870066, 45.9278044441, 4090.831212 ]
			},
			"properties" : {
				"OBJECTID" : 183,
				"HOEHE" : 4092,
				"NAME" : "Punta Polluce",
				"SPRACHCODE" : "Italienisch inkl. Lokalsprachen"
			}
		},
		{
			"type" : "Feature",
			"geometry" : {
				"type" : "Point",
				"coordinates" : [ 7.7852870066, 45.9278044441, 4090.831212 ]
			},
			"properties" : {
				"OBJECTID" : 184,
				"HOEHE" : 4092,
				"NAME" : "Pollux",
				"SPRACHCODE" : "Hochdeutsch inkl. Lokalsprachen"
			}
		},
		{
			"type" : "Feature",
			"geometry" : {
				"type" : "Point",
				"coordinates" : [ 8.6832297805, 46.4759471376, 2759.610012 ]
			},
			"properties" : {
				"OBJECTID" : 185,
				"HOEHE" : 2760,
				"NAME" : "Pizzo Massari",
				"SPRACHCODE" : "Italienisch inkl. Lokalsprachen"
			}
		},
		{
			"type" : "Feature",
			"geometry" : {
				"type" : "Point",
				"coordinates" : [ 8.7486737998, 46.5524547064, 2746.335012 ]
			},
			"properties" : {
				"OBJECTID" : 186,
				"HOEHE" : 2747,
				"NAME" : "Schenadüi",
				"SPRACHCODE" : "Italienisch inkl. Lokalsprachen"
			}
		},
		{
			"type" : "Feature",
			"geometry" : {
				"type" : "Point",
				"coordinates" : [ 7.7717693616, 46.4887684245, 3660.118712 ]
			},
			"properties" : {
				"OBJECTID" : 187,
				"HOEHE" : 3661,
				"NAME" : "Blüemlisalphorn",
				"SPRACHCODE" : "Hochdeutsch inkl. Lokalsprachen"
			}
		},
		{
			"type" : "Feature",
			"geometry" : {
				"type" : "Point",
				"coordinates" : [ 6.9480386321, 46.1728256572, 3177.993712 ]
			},
			"properties" : {
				"OBJECTID" : 188,
				"HOEHE" : 3178,
				"NAME" : "Cime de l'Est",
				"SPRACHCODE" : "Franzoesisch inkl. Lokalsprachen"
			}
		},
		{
			"type" : "Feature",
			"geometry" : {
				"type" : "Point",
				"coordinates" : [ 6.9029762263, 46.1242922775, 3056.782512 ]
			},
			"properties" : {
				"OBJECTID" : 189,
				"HOEHE" : 3057,
				"NAME" : "Grand Ruan",
				"SPRACHCODE" : "Franzoesisch inkl. Lokalsprachen"
			}
		},
		{
			"type" : "Feature",
			"geometry" : {
				"type" : "Point",
				"coordinates" : [ 6.9029762263, 46.1242922775, 3056.782512 ]
			},
			"properties" : {
				"OBJECTID" : 190,
				"HOEHE" : 3057,
				"NAME" : "Mont Ruan",
				"SPRACHCODE" : "Franzoesisch inkl. Lokalsprachen"
			}
		},
		{
			"type" : "Feature",
			"geometry" : {
				"type" : "Point",
				"coordinates" : [ 8.9890970133, 46.9928923651, 2915.057512 ]
			},
			"properties" : {
				"OBJECTID" : 191,
				"HOEHE" : 2915,
				"NAME" : "Bächistock",
				"SPRACHCODE" : "Hochdeutsch inkl. Lokalsprachen"
			}
		},
		{
			"type" : "Feature",
			"geometry" : {
				"type" : "Point",
				"coordinates" : [ 8.791757326, 46.8879343098, 2763.636212 ]
			},
			"properties" : {
				"OBJECTID" : 192,
				"HOEHE" : 2764,
				"NAME" : "Höch Windgällen",
				"SPRACHCODE" : "Hochdeutsch inkl. Lokalsprachen"
			}
		},
		{
			"type" : "Feature",
			"geometry" : {
				"type" : "Point",
				"coordinates" : [ 8.6636756701, 46.6225115623, 2927.726212 ]
			},
			"properties" : {
				"OBJECTID" : 193,
				"HOEHE" : 2928,
				"NAME" : "Six Madun",
				"SPRACHCODE" : "Rumantsch Grischun inkl. Lokalsprachen"
			}
		},
		{
			"type" : "Feature",
			"geometry" : {
				"type" : "Point",
				"coordinates" : [ 8.6636756701, 46.6225115623, 2927.726212 ]
			},
			"properties" : {
				"OBJECTID" : 194,
				"HOEHE" : 2928,
				"NAME" : "Badus",
				"SPRACHCODE" : "Rumantsch Grischun inkl. Lokalsprachen"
			}
		},
		{
			"type" : "Feature",
			"geometry" : {
				"type" : "Point",
				"coordinates" : [ 9.2285308225, 46.6234324998, 2945.487512 ]
			},
			"properties" : {
				"OBJECTID" : 195,
				"HOEHE" : 2946,
				"NAME" : "Wissensteinhorn",
				"SPRACHCODE" : "Hochdeutsch inkl. Lokalsprachen"
			}
		},
		{
			"type" : "Feature",
			"geometry" : {
				"type" : "Point",
				"coordinates" : [ 9.2285308225, 46.6234324998, 2945.487512 ]
			},
			"properties" : {
				"OBJECTID" : 196,
				"HOEHE" : 2946,
				"NAME" : "Piz Tomül",
				"SPRACHCODE" : "Rumantsch Grischun inkl. Lokalsprachen"
			}
		},
		{
			"type" : "Feature",
			"geometry" : {
				"type" : "Point",
				"coordinates" : [ 9.231972095, 46.5754912039, 2928.228712 ]
			},
			"properties" : {
				"OBJECTID" : 197,
				"HOEHE" : 2929,
				"NAME" : "Bärenhorn",
				"SPRACHCODE" : "Hochdeutsch inkl. Lokalsprachen"
			}
		},
		{
			"type" : "Feature",
			"geometry" : {
				"type" : "Point",
				"coordinates" : [ 8.8650607085, 46.4886165197, 2585.451212 ]
			},
			"properties" : {
				"OBJECTID" : 198,
				"HOEHE" : 2586,
				"NAME" : "Pizzo Molare",
				"SPRACHCODE" : "Italienisch inkl. Lokalsprachen"
			}
		},
		{
			"type" : "Feature",
			"geometry" : {
				"type" : "Point",
				"coordinates" : [ 9.4971014431, 46.6034268419, 2971.913712 ]
			},
			"properties" : {
				"OBJECTID" : 199,
				"HOEHE" : 2972,
				"NAME" : "Piz Curvér",
				"SPRACHCODE" : "Rumantsch Grischun inkl. Lokalsprachen"
			}
		},
		{
			"type" : "Feature",
			"geometry" : {
				"type" : "Point",
				"coordinates" : [ 9.2888654692, 46.7276230014, 2880.861212 ]
			},
			"properties" : {
				"OBJECTID" : 200,
				"HOEHE" : 2880,
				"NAME" : "Piz Fess",
				"SPRACHCODE" : "Rumantsch Grischun inkl. Lokalsprachen"
			}
		},
		{
			"type" : "Feature",
			"geometry" : {
				"type" : "Point",
				"coordinates" : [ 8.8276789343, 46.7916279328, 3255.735012 ]
			},
			"properties" : {
				"OBJECTID" : 201,
				"HOEHE" : 3256,
				"NAME" : "Gross Düssi",
				"SPRACHCODE" : "Hochdeutsch inkl. Lokalsprachen"
			}
		},
		{
			"type" : "Feature",
			"geometry" : {
				"type" : "Point",
				"coordinates" : [ 8.8276789343, 46.7916279328, 3255.735012 ]
			},
			"properties" : {
				"OBJECTID" : 202,
				"HOEHE" : 3256,
				"NAME" : "Piz Git",
				"SPRACHCODE" : "Rumantsch Grischun inkl. Lokalsprachen"
			}
		},
		{
			"type" : "Feature",
			"geometry" : {
				"type" : "Point",
				"coordinates" : [ 9.646564847, 46.6142533891, 3158.260012 ]
			},
			"properties" : {
				"OBJECTID" : 203,
				"HOEHE" : 3159,
				"NAME" : "Piz Mitgel",
				"SPRACHCODE" : "Rumantsch Grischun inkl. Lokalsprachen"
			}
		},
		{
			"type" : "Feature",
			"geometry" : {
				"type" : "Point",
				"coordinates" : [ 9.6713223038, 46.6120581913, 3172.465012 ]
			},
			"properties" : {
				"OBJECTID" : 204,
				"HOEHE" : 3173,
				"NAME" : "Tinzenhorn",
				"SPRACHCODE" : "Hochdeutsch inkl. Lokalsprachen"
			}
		},
		{
			"type" : "Feature",
			"geometry" : {
				"type" : "Point",
				"coordinates" : [ 9.6713223038, 46.6120581913, 3172.465012 ]
			},
			"properties" : {
				"OBJECTID" : 205,
				"HOEHE" : 3173,
				"NAME" : "Corn da Tinizong",
				"SPRACHCODE" : "Rumantsch Grischun inkl. Lokalsprachen"
			}
		},
		{
			"type" : "Feature",
			"geometry" : {
				"type" : "Point",
				"coordinates" : [ 9.7076308213, 46.6019550535, 3338.420012 ]
			},
			"properties" : {
				"OBJECTID" : 206,
				"HOEHE" : 3339,
				"NAME" : "Piz Ela",
				"SPRACHCODE" : "Rumantsch Grischun inkl. Lokalsprachen"
			}
		},
		{
			"type" : "Feature",
			"geometry" : {
				"type" : "Point",
				"coordinates" : [ 9.7197479556, 46.5700771584, 3127.495012 ]
			},
			"properties" : {
				"OBJECTID" : 207,
				"HOEHE" : 3128,
				"NAME" : "Piz Bleis Marscha",
				"SPRACHCODE" : "Rumantsch Grischun inkl. Lokalsprachen"
			}
		},
		{
			"type" : "Feature",
			"geometry" : {
				"type" : "Point",
				"coordinates" : [ 9.5591679809, 46.5203312655, 3261.263712 ]
			},
			"properties" : {
				"OBJECTID" : 208,
				"HOEHE" : 3262,
				"NAME" : "Piz Forbesch",
				"SPRACHCODE" : "Rumantsch Grischun inkl. Lokalsprachen"
			}
		},
		{
			"type" : "Feature",
			"geometry" : {
				"type" : "Point",
				"coordinates" : [ 9.6801800655, 46.4843958148, 2909.038712 ]
			},
			"properties" : {
				"OBJECTID" : 209,
				"HOEHE" : 2910,
				"NAME" : "Piz Neir",
				"SPRACHCODE" : "Rumantsch Grischun inkl. Lokalsprachen"
			}
		},
		{
			"type" : "Feature",
			"geometry" : {
				"type" : "Point",
				"coordinates" : [ 9.5769675626, 46.5355164322, 3202.476212 ]
			},
			"properties" : {
				"OBJECTID" : 210,
				"HOEHE" : 3203,
				"NAME" : "Piz Arblatsch",
				"SPRACHCODE" : "Rumantsch Grischun inkl. Lokalsprachen"
			}
		},
		{
			"type" : "Feature",
			"geometry" : {
				"type" : "Point",
				"coordinates" : [ 9.6959610724, 46.5364350999, 3396.440012 ]
			},
			"properties" : {
				"OBJECTID" : 211,
				"HOEHE" : 3397,
				"NAME" : "Piz Calderas",
				"SPRACHCODE" : "Rumantsch Grischun inkl. Lokalsprachen"
			}
		},
		{
			"type" : "Feature",
			"geometry" : {
				"type" : "Point",
				"coordinates" : [ 9.6914974298, 46.5451854508, 3377.813712 ]
			},
			"properties" : {
				"OBJECTID" : 212,
				"HOEHE" : 3378,
				"NAME" : "Piz d'Err",
				"SPRACHCODE" : "Rumantsch Grischun inkl. Lokalsprachen"
			}
		},
		{
			"type" : "Feature",
			"geometry" : {
				"type" : "Point",
				"coordinates" : [ 9.7022385369, 46.511453452, 3203.501212 ]
			},
			"properties" : {
				"OBJECTID" : 213,
				"HOEHE" : 3204,
				"NAME" : "Piz d'Agnel",
				"SPRACHCODE" : "Rumantsch Grischun inkl. Lokalsprachen"
			}
		},
		{
			"type" : "Feature",
			"geometry" : {
				"type" : "Point",
				"coordinates" : [ 9.5616621446, 46.4870642074, 3391.468712 ]
			},
			"properties" : {
				"OBJECTID" : 214,
				"HOEHE" : 3392,
				"NAME" : "Piz Platta",
				"SPRACHCODE" : "Rumantsch Grischun inkl. Lokalsprachen"
			}
		},
		{
			"type" : "Feature",
			"geometry" : {
				"type" : "Point",
				"coordinates" : [ 9.7230010346, 46.4456977474, 3164.081212 ]
			},
			"properties" : {
				"OBJECTID" : 215,
				"HOEHE" : 3165,
				"NAME" : "Piz Lagrev",
				"SPRACHCODE" : "Rumantsch Grischun inkl. Lokalsprachen"
			}
		},
		{
			"type" : "Feature",
			"geometry" : {
				"type" : "Point",
				"coordinates" : [ 9.5739887367, 46.4651280409, 3163.598712 ]
			},
			"properties" : {
				"OBJECTID" : 216,
				"HOEHE" : 3164,
				"NAME" : "Mazzaspitz",
				"SPRACHCODE" : "Hochdeutsch inkl. Lokalsprachen"
			}
		},
		{
			"type" : "Feature",
			"geometry" : {
				"type" : "Point",
				"coordinates" : [ 9.6056683098, 46.4102795856, 3017.545012 ]
			},
			"properties" : {
				"OBJECTID" : 217,
				"HOEHE" : 3018,
				"NAME" : "Piz Turba",
				"SPRACHCODE" : "Italienisch inkl. Lokalsprachen"
			}
		},
		{
			"type" : "Feature",
			"geometry" : {
				"type" : "Point",
				"coordinates" : [ 9.730000078, 46.3819511406, 3158.556212 ]
			},
			"properties" : {
				"OBJECTID" : 218,
				"HOEHE" : 3159,
				"NAME" : "Piz da la Margna",
				"SPRACHCODE" : "Italienisch inkl. Lokalsprachen"
			}
		},
		{
			"type" : "Feature",
			"geometry" : {
				"type" : "Point",
				"coordinates" : [ 9.5869047141, 46.4028690328, 3052.535012 ]
			},
			"properties" : {
				"OBJECTID" : 219,
				"HOEHE" : 3053,
				"NAME" : "Piz Piot",
				"SPRACHCODE" : "Italienisch inkl. Lokalsprachen"
			}
		},
		{
			"type" : "Feature",
			"geometry" : {
				"type" : "Point",
				"coordinates" : [ 9.6823366537, 46.342310971, 3243.501212 ]
			},
			"properties" : {
				"OBJECTID" : 220,
				"HOEHE" : 3244,
				"NAME" : "Piz Bacun",
				"SPRACHCODE" : "Italienisch inkl. Lokalsprachen"
			}
		},
		{
			"type" : "Feature",
			"geometry" : {
				"type" : "Point",
				"coordinates" : [ 9.6744356639, 46.422884784, 2931.602512 ]
			},
			"properties" : {
				"OBJECTID" : 221,
				"HOEHE" : 2932,
				"NAME" : "Piz Grevasalvas",
				"SPRACHCODE" : "Rumantsch Grischun inkl. Lokalsprachen"
			}
		},
		{
			"type" : "Feature",
			"geometry" : {
				"type" : "Point",
				"coordinates" : [ 9.7038328722, 46.4407047478, 2926.552512 ]
			},
			"properties" : {
				"OBJECTID" : 222,
				"HOEHE" : 2927,
				"NAME" : "Piz d'Emmat Dadaint",
				"SPRACHCODE" : "Rumantsch Grischun inkl. Lokalsprachen"
			}
		},
		{
			"type" : "Feature",
			"geometry" : {
				"type" : "Point",
				"coordinates" : [ 9.6702891318, 46.4105103617, 2779.587512 ]
			},
			"properties" : {
				"OBJECTID" : 223,
				"HOEHE" : 2780,
				"NAME" : "Piz Lunghin",
				"SPRACHCODE" : "Italienisch inkl. Lokalsprachen"
			}
		},
		{
			"type" : "Feature",
			"geometry" : {
				"type" : "Point",
				"coordinates" : [ 9.5606319263, 46.3874475826, 3106.518712 ]
			},
			"properties" : {
				"OBJECTID" : 224,
				"HOEHE" : 3107,
				"NAME" : "Gletscherhorn",
				"SPRACHCODE" : "Hochdeutsch inkl. Lokalsprachen"
			}
		},
		{
			"type" : "Feature",
			"geometry" : {
				"type" : "Point",
				"coordinates" : [ 9.5831645064, 46.3753172168, 3130.507512 ]
			},
			"properties" : {
				"OBJECTID" : 225,
				"HOEHE" : 3131,
				"NAME" : "Piz Duan",
				"SPRACHCODE" : "Italienisch inkl. Lokalsprachen"
			}
		},
		{
			"type" : "Feature",
			"geometry" : {
				"type" : "Point",
				"coordinates" : [ 9.7247187686, 46.3382635545, 3213.515012 ]
			},
			"properties" : {
				"OBJECTID" : 226,
				"HOEHE" : 3214,
				"NAME" : "Monte del Forno",
				"SPRACHCODE" : "Italienisch inkl. Lokalsprachen"
			}
		},
		{
			"type" : "Feature",
			"geometry" : {
				"type" : "Point",
				"coordinates" : [ 9.6774590902, 46.3018625287, 3378.661212 ]
			},
			"properties" : {
				"OBJECTID" : 227,
				"HOEHE" : 3379,
				"NAME" : "Cima di Castello",
				"SPRACHCODE" : "Italienisch inkl. Lokalsprachen"
			}
		},
		{
			"type" : "Feature",
			"geometry" : {
				"type" : "Point",
				"coordinates" : [ 9.5863204929, 46.2953106156, 3306.998712 ]
			},
			"properties" : {
				"OBJECTID" : 228,
				"HOEHE" : 3302,
				"NAME" : "Pizzo Badile",
				"SPRACHCODE" : "Italienisch inkl. Lokalsprachen"
			}
		},
		{
			"type" : "Feature",
			"geometry" : {
				"type" : "Point",
				"coordinates" : [ 9.6019606455, 46.2949128635, 3368.780012 ]
			},
			"properties" : {
				"OBJECTID" : 229,
				"HOEHE" : 3369,
				"NAME" : "Pizzo Cengalo",
				"SPRACHCODE" : "Italienisch inkl. Lokalsprachen"
			}
		},
		{
			"type" : "Feature",
			"geometry" : {
				"type" : "Point",
				"coordinates" : [ 8.3749786933, 46.6331077823, 3382.663712 ]
			},
			"properties" : {
				"OBJECTID" : 230,
				"HOEHE" : 3383,
				"NAME" : "Tieralplistock",
				"SPRACHCODE" : "Hochdeutsch inkl. Lokalsprachen"
			}
		},
		{
			"type" : "Feature",
			"geometry" : {
				"type" : "Point",
				"coordinates" : [ 8.1155467041, 46.6387551471, 3691.522512 ]
			},
			"properties" : {
				"OBJECTID" : 231,
				"HOEHE" : 3692,
				"NAME" : "Wetterhorn",
				"SPRACHCODE" : "Hochdeutsch inkl. Lokalsprachen"
			}
		},
		{
			"type" : "Feature",
			"geometry" : {
				"type" : "Point",
				"coordinates" : [ 8.4192790563, 46.6341881363, 3587.315012 ]
			},
			"properties" : {
				"OBJECTID" : 232,
				"HOEHE" : 3588,
				"NAME" : "Hinterer Rhonestock",
				"SPRACHCODE" : "Hochdeutsch inkl. Lokalsprachen"
			}
		},
		{
			"type" : "Feature",
			"geometry" : {
				"type" : "Point",
				"coordinates" : [ 8.4223607891, 46.6272652804, 3514.900012 ]
			},
			"properties" : {
				"OBJECTID" : 233,
				"HOEHE" : 3515,
				"NAME" : "Tiefenstock",
				"SPRACHCODE" : "Hochdeutsch inkl. Lokalsprachen"
			}
		},
		{
			"type" : "Feature",
			"geometry" : {
				"type" : "Point",
				"coordinates" : [ 8.4210798977, 46.6434816492, 3629.778712 ]
			},
			"properties" : {
				"OBJECTID" : 234,
				"HOEHE" : 3630,
				"NAME" : "Dammastock",
				"SPRACHCODE" : "Hochdeutsch inkl. Lokalsprachen"
			}
		},
		{
			"type" : "Feature",
			"geometry" : {
				"type" : "Point",
				"coordinates" : [ 8.4169577236, 46.6126185797, 3585.620012 ]
			},
			"properties" : {
				"OBJECTID" : 235,
				"HOEHE" : 3586,
				"NAME" : "Galenstock",
				"SPRACHCODE" : "Hochdeutsch inkl. Lokalsprachen"
			}
		},
		{
			"type" : "Feature",
			"geometry" : {
				"type" : "Point",
				"coordinates" : [ 8.0777228469, 46.5319957, 4043.181212 ]
			},
			"properties" : {
				"OBJECTID" : 236,
				"HOEHE" : 4044,
				"NAME" : "Grosses Grünhorn",
				"SPRACHCODE" : "Hochdeutsch inkl. Lokalsprachen"
			}
		},
		{
			"type" : "Feature",
			"geometry" : {
				"type" : "Point",
				"coordinates" : [ 8.1744979658, 46.5314073419, 3629.812512 ]
			},
			"properties" : {
				"OBJECTID" : 237,
				"HOEHE" : 3630,
				"NAME" : "Oberaarhorn",
				"SPRACHCODE" : "Hochdeutsch inkl. Lokalsprachen"
			}
		},
		{
			"type" : "Feature",
			"geometry" : {
				"type" : "Point",
				"coordinates" : [ 7.7349116016, 46.468536223, 3637.916212 ]
			},
			"properties" : {
				"OBJECTID" : 238,
				"HOEHE" : 3638,
				"NAME" : "Doldenhorn",
				"SPRACHCODE" : "Hochdeutsch inkl. Lokalsprachen"
			}
		},
		{
			"type" : "Feature",
			"geometry" : {
				"type" : "Point",
				"coordinates" : [ 8.1916180694, 46.3047930183, 3271.793712 ]
			},
			"properties" : {
				"OBJECTID" : 239,
				"HOEHE" : 3272,
				"NAME" : "Helsenhorn",
				"SPRACHCODE" : "Hochdeutsch inkl. Lokalsprachen"
			}
		},
		{
			"type" : "Feature",
			"geometry" : {
				"type" : "Point",
				"coordinates" : [ 8.1256395791, 46.2945661832, 3193.136212 ]
			},
			"properties" : {
				"OBJECTID" : 240,
				"HOEHE" : 3194,
				"NAME" : "Bortelhorn",
				"SPRACHCODE" : "Hochdeutsch inkl. Lokalsprachen"
			}
		},
		{
			"type" : "Feature",
			"geometry" : {
				"type" : "Point",
				"coordinates" : [ 8.1256395791, 46.2945661832, 3193.136212 ]
			},
			"properties" : {
				"OBJECTID" : 241,
				"HOEHE" : 3194,
				"NAME" : "Punta del Rebbio",
				"SPRACHCODE" : "Italienisch inkl. Lokalsprachen"
			}
		},
		{
			"type" : "Feature",
			"geometry" : {
				"type" : "Point",
				"coordinates" : [ 8.269917889, 46.4104586758, 3175.617512 ]
			},
			"properties" : {
				"OBJECTID" : 242,
				"HOEHE" : 3176,
				"NAME" : "Ober Rappehorn",
				"SPRACHCODE" : "Hochdeutsch inkl. Lokalsprachen"
			}
		},
		{
			"type" : "Feature",
			"geometry" : {
				"type" : "Point",
				"coordinates" : [ 7.3607445657, 46.3545481682, 3247.595012 ]
			},
			"properties" : {
				"OBJECTID" : 243,
				"HOEHE" : 3248,
				"NAME" : "Wildhorn",
				"SPRACHCODE" : "Hochdeutsch inkl. Lokalsprachen"
			}
		},
		{
			"type" : "Feature",
			"geometry" : {
				"type" : "Point",
				"coordinates" : [ 7.2214686692, 46.3292479832, 3122.666212 ]
			},
			"properties" : {
				"OBJECTID" : 244,
				"HOEHE" : 3123,
				"NAME" : "Oldehore",
				"SPRACHCODE" : "Hochdeutsch inkl. Lokalsprachen"
			}
		},
		{
			"type" : "Feature",
			"geometry" : {
				"type" : "Point",
				"coordinates" : [ 7.2214686692, 46.3292479832, 3122.666212 ]
			},
			"properties" : {
				"OBJECTID" : 245,
				"HOEHE" : 3123,
				"NAME" : "Becca d'Audon",
				"SPRACHCODE" : "Franzoesisch inkl. Lokalsprachen"
			}
		},
		{
			"type" : "Feature",
			"geometry" : {
				"type" : "Point",
				"coordinates" : [ 7.7568087184, 46.2167746987, 3200.785012 ]
			},
			"properties" : {
				"OBJECTID" : 246,
				"HOEHE" : 3201,
				"NAME" : "Schwarzhorn",
				"SPRACHCODE" : "Hochdeutsch inkl. Lokalsprachen"
			}
		},
		{
			"type" : "Feature",
			"geometry" : {
				"type" : "Point",
				"coordinates" : [ 7.07548751, 46.1993359794, 2968.960012 ]
			},
			"properties" : {
				"OBJECTID" : 247,
				"HOEHE" : 2969,
				"NAME" : "Grande Dent de Morcles",
				"SPRACHCODE" : "Franzoesisch inkl. Lokalsprachen"
			}
		},
		{
			"type" : "Feature",
			"geometry" : {
				"type" : "Point",
				"coordinates" : [ 7.8703707351, 46.1451478622, 3625.552512 ]
			},
			"properties" : {
				"OBJECTID" : 248,
				"HOEHE" : 3626,
				"NAME" : "Gross Bigerhorn",
				"SPRACHCODE" : "Hochdeutsch inkl. Lokalsprachen"
			}
		},
		{
			"type" : "Feature",
			"geometry" : {
				"type" : "Point",
				"coordinates" : [ 7.4719195405, 45.9457506946, 3713.766212 ]
			},
			"properties" : {
				"OBJECTID" : 249,
				"HOEHE" : 3714,
				"NAME" : "La Singla",
				"SPRACHCODE" : "Franzoesisch inkl. Lokalsprachen"
			}
		},
		{
			"type" : "Feature",
			"geometry" : {
				"type" : "Point",
				"coordinates" : [ 8.5194725704, 46.5389035897, 2962.730012 ]
			},
			"properties" : {
				"OBJECTID" : 250,
				"HOEHE" : 2963,
				"NAME" : "Pizzo Lucendro",
				"SPRACHCODE" : "Italienisch inkl. Lokalsprachen"
			}
		},
		{
			"type" : "Feature",
			"geometry" : {
				"type" : "Point",
				"coordinates" : [ 7.3152363176, 46.3438538621, 3035.085012 ]
			},
			"properties" : {
				"OBJECTID" : 251,
				"HOEHE" : 3036,
				"NAME" : "Arpelistock",
				"SPRACHCODE" : "Hochdeutsch inkl. Lokalsprachen"
			}
		},
		{
			"type" : "Feature",
			"geometry" : {
				"type" : "Point",
				"coordinates" : [ 8.4684411753, 46.4115635781, 3272.010012 ]
			},
			"properties" : {
				"OBJECTID" : 252,
				"HOEHE" : 3272,
				"NAME" : "Basòdino",
				"SPRACHCODE" : "Italienisch inkl. Lokalsprachen"
			}
		},
		{
			"type" : "Feature",
			"geometry" : {
				"type" : "Point",
				"coordinates" : [ 7.360405463, 46.1040465883, 3212.492512 ]
			},
			"properties" : {
				"OBJECTID" : 253,
				"HOEHE" : 3213,
				"NAME" : "Le Métailler",
				"SPRACHCODE" : "Franzoesisch inkl. Lokalsprachen"
			}
		},
		{
			"type" : "Feature",
			"geometry" : {
				"type" : "Point",
				"coordinates" : [ 7.611929595, 46.0342557562, 4356.752512 ]
			},
			"properties" : {
				"OBJECTID" : 254,
				"HOEHE" : 4357,
				"NAME" : "Dent Blanche",
				"SPRACHCODE" : "Franzoesisch inkl. Lokalsprachen"
			}
		},
		{
			"type" : "Feature",
			"geometry" : {
				"type" : "Point",
				"coordinates" : [ 7.5074553725, 45.9770712226, 3636.846212 ]
			},
			"properties" : {
				"OBJECTID" : 255,
				"HOEHE" : 3637,
				"NAME" : "Mont Collon",
				"SPRACHCODE" : "Franzoesisch inkl. Lokalsprachen"
			}
		},
		{
			"type" : "Feature",
			"geometry" : {
				"type" : "Point",
				"coordinates" : [ 7.4173566313, 45.9931471674, 3869.546212 ]
			},
			"properties" : {
				"OBJECTID" : 256,
				"HOEHE" : 3870,
				"NAME" : "Mont Blanc de Cheilon",
				"SPRACHCODE" : "Franzoesisch inkl. Lokalsprachen"
			}
		},
		{
			"type" : "Feature",
			"geometry" : {
				"type" : "Point",
				"coordinates" : [ 7.4550636966, 45.9913861462, 3788.950012 ]
			},
			"properties" : {
				"OBJECTID" : 257,
				"HOEHE" : 3790,
				"NAME" : "Pigne d'Arolla",
				"SPRACHCODE" : "Franzoesisch inkl. Lokalsprachen"
			}
		},
		{
			"type" : "Feature",
			"geometry" : {
				"type" : "Point",
				"coordinates" : [ 7.3691473621, 46.0162435687, 3703.698712 ]
			},
			"properties" : {
				"OBJECTID" : 258,
				"HOEHE" : 3704,
				"NAME" : "Le Pleureur",
				"SPRACHCODE" : "Franzoesisch inkl. Lokalsprachen"
			}
		},
		{
			"type" : "Feature",
			"geometry" : {
				"type" : "Point",
				"coordinates" : [ 7.4223517873, 45.9146709014, 3530.890012 ]
			},
			"properties" : {
				"OBJECTID" : 259,
				"HOEHE" : 3531,
				"NAME" : "Bec d'Epicoune",
				"SPRACHCODE" : "Franzoesisch inkl. Lokalsprachen"
			}
		},
		{
			"type" : "Feature",
			"geometry" : {
				"type" : "Point",
				"coordinates" : [ 7.2992351866, 45.937586607, 4313.338712 ]
			},
			"properties" : {
				"OBJECTID" : 260,
				"HOEHE" : 4314,
				"NAME" : "Combin de Grafeneire",
				"SPRACHCODE" : "Franzoesisch inkl. Lokalsprachen"
			}
		},
		{
			"type" : "Feature",
			"geometry" : {
				"type" : "Point",
				"coordinates" : [ 7.397798364, 45.9434868026, 3402.855012 ]
			},
			"properties" : {
				"OBJECTID" : 261,
				"HOEHE" : 3403,
				"NAME" : "Pointe d'Otemma",
				"SPRACHCODE" : "Franzoesisch inkl. Lokalsprachen"
			}
		},
		{
			"type" : "Feature",
			"geometry" : {
				"type" : "Point",
				"coordinates" : [ 7.3187125739, 46.0805510053, 3328.787512 ]
			},
			"properties" : {
				"OBJECTID" : 262,
				"HOEHE" : 3329,
				"NAME" : "Mont Fort",
				"SPRACHCODE" : "Franzoesisch inkl. Lokalsprachen"
			}
		},
		{
			"type" : "Feature",
			"geometry" : {
				"type" : "Point",
				"coordinates" : [ 7.3541666617, 46.0605027392, 3335.867512 ]
			},
			"properties" : {
				"OBJECTID" : 263,
				"HOEHE" : 3336,
				"NAME" : "Rosablanche",
				"SPRACHCODE" : "Franzoesisch inkl. Lokalsprachen"
			}
		},
		{
			"type" : "Feature",
			"geometry" : {
				"type" : "Point",
				"coordinates" : [ 7.5231876746, 46.039429406, 3675.723712 ]
			},
			"properties" : {
				"OBJECTID" : 264,
				"HOEHE" : 3676,
				"NAME" : "Dent de Perroc",
				"SPRACHCODE" : "Franzoesisch inkl. Lokalsprachen"
			}
		},
		{
			"type" : "Feature",
			"geometry" : {
				"type" : "Point",
				"coordinates" : [ 7.5222687865, 46.0214991559, 3667.078712 ]
			},
			"properties" : {
				"OBJECTID" : 265,
				"HOEHE" : 3668,
				"NAME" : "Aiguille de la Tsa",
				"SPRACHCODE" : "Franzoesisch inkl. Lokalsprachen"
			}
		},
		{
			"type" : "Feature",
			"geometry" : {
				"type" : "Point",
				"coordinates" : [ 7.6680490027, 46.0385460298, 4062.353712 ]
			},
			"properties" : {
				"OBJECTID" : 266,
				"HOEHE" : 4063,
				"NAME" : "Ober Gabelhorn",
				"SPRACHCODE" : "Hochdeutsch inkl. Lokalsprachen"
			}
		},
		{
			"type" : "Feature",
			"geometry" : {
				"type" : "Point",
				"coordinates" : [ 7.8802730276, 46.1351516388, 3795.187512 ]
			},
			"properties" : {
				"OBJECTID" : 267,
				"HOEHE" : 3796,
				"NAME" : "Balfrin",
				"SPRACHCODE" : "Hochdeutsch inkl. Lokalsprachen"
			}
		},
		{
			"type" : "Feature",
			"geometry" : {
				"type" : "Point",
				"coordinates" : [ 8.011986273, 46.1276937633, 4016.636212 ]
			},
			"properties" : {
				"OBJECTID" : 268,
				"HOEHE" : 4017,
				"NAME" : "Weissmies",
				"SPRACHCODE" : "Hochdeutsch inkl. Lokalsprachen"
			}
		},
		{
			"type" : "Feature",
			"geometry" : {
				"type" : "Point",
				"coordinates" : [ 7.8839331115, 46.0231179488, 4198.737512 ]
			},
			"properties" : {
				"OBJECTID" : 269,
				"HOEHE" : 4199,
				"NAME" : "Rimpfischhorn",
				"SPRACHCODE" : "Hochdeutsch inkl. Lokalsprachen"
			}
		},
		{
			"type" : "Feature",
			"geometry" : {
				"type" : "Point",
				"coordinates" : [ 7.90203363, 46.0131799789, 4189.801212 ]
			},
			"properties" : {
				"OBJECTID" : 270,
				"HOEHE" : 4190,
				"NAME" : "Strahlhorn",
				"SPRACHCODE" : "Hochdeutsch inkl. Lokalsprachen"
			}
		},
		{
			"type" : "Feature",
			"geometry" : {
				"type" : "Point",
				"coordinates" : [ 7.8378815301, 45.9856308301, 3531.633712 ]
			},
			"properties" : {
				"OBJECTID" : 271,
				"HOEHE" : 3532,
				"NAME" : "Stockhorn",
				"SPRACHCODE" : "Hochdeutsch inkl. Lokalsprachen"
			}
		},
		{
			"type" : "Feature",
			"geometry" : {
				"type" : "Point",
				"coordinates" : [ 7.7476554363, 45.9410100368, 4162.920012 ]
			},
			"properties" : {
				"OBJECTID" : 272,
				"HOEHE" : 4164,
				"NAME" : "Breithorn",
				"SPRACHCODE" : "Hochdeutsch inkl. Lokalsprachen"
			}
		},
		{
			"type" : "Feature",
			"geometry" : {
				"type" : "Point",
				"coordinates" : [ 7.745780162, 46.1259057932, 3832.080012 ]
			},
			"properties" : {
				"OBJECTID" : 273,
				"HOEHE" : 3833,
				"NAME" : "Brunegghorn",
				"SPRACHCODE" : "Hochdeutsch inkl. Lokalsprachen"
			}
		},
		{
			"type" : "Feature",
			"geometry" : {
				"type" : "Point",
				"coordinates" : [ 7.7160669406, 46.1012447132, 4505.668712 ]
			},
			"properties" : {
				"OBJECTID" : 274,
				"HOEHE" : 4506,
				"NAME" : "Weisshorn",
				"SPRACHCODE" : "Hochdeutsch inkl. Lokalsprachen"
			}
		},
		{
			"type" : "Feature",
			"geometry" : {
				"type" : "Point",
				"coordinates" : [ 7.7340795891, 46.1559216585, 3609.701212 ]
			},
			"properties" : {
				"OBJECTID" : 275,
				"HOEHE" : 3610,
				"NAME" : "Üssers Barrhorn",
				"SPRACHCODE" : "Hochdeutsch inkl. Lokalsprachen"
			}
		},
		{
			"type" : "Feature",
			"geometry" : {
				"type" : "Point",
				"coordinates" : [ 7.7373044485, 46.1497065383, 3582.752512 ]
			},
			"properties" : {
				"OBJECTID" : 276,
				"HOEHE" : 3583,
				"NAME" : "Inners Barrhorn",
				"SPRACHCODE" : "Hochdeutsch inkl. Lokalsprachen"
			}
		},
		{
			"type" : "Feature",
			"geometry" : {
				"type" : "Point",
				"coordinates" : [ 7.8571911243, 46.0834295864, 4490.648712 ]
			},
			"properties" : {
				"OBJECTID" : 277,
				"HOEHE" : 4491,
				"NAME" : "Täschhorn",
				"SPRACHCODE" : "Hochdeutsch inkl. Lokalsprachen"
			}
		},
		{
			"type" : "Feature",
			"geometry" : {
				"type" : "Point",
				"coordinates" : [ 7.8588387508, 46.0939838045, 4544.703712 ]
			},
			"properties" : {
				"OBJECTID" : 278,
				"HOEHE" : 4545,
				"NAME" : "Dom",
				"SPRACHCODE" : "Hochdeutsch inkl. Lokalsprachen"
			}
		},
		{
			"type" : "Feature",
			"geometry" : {
				"type" : "Point",
				"coordinates" : [ 7.8640538416, 46.108876945, 4326.508712 ]
			},
			"properties" : {
				"OBJECTID" : 279,
				"HOEHE" : 4327,
				"NAME" : "Nadelhorn",
				"SPRACHCODE" : "Hochdeutsch inkl. Lokalsprachen"
			}
		},
		{
			"type" : "Feature",
			"geometry" : {
				"type" : "Point",
				"coordinates" : [ 7.7416822481, 46.0556453794, 3405.720012 ]
			},
			"properties" : {
				"OBJECTID" : 280,
				"HOEHE" : 3406,
				"NAME" : "Mettelhorn",
				"SPRACHCODE" : "Hochdeutsch inkl. Lokalsprachen"
			}
		},
		{
			"type" : "Feature",
			"geometry" : {
				"type" : "Point",
				"coordinates" : [ 7.6901199081, 46.0648321245, 4220.643712 ]
			},
			"properties" : {
				"OBJECTID" : 281,
				"HOEHE" : 4221,
				"NAME" : "Zinalrothorn",
				"SPRACHCODE" : "Hochdeutsch inkl. Lokalsprachen"
			}
		},
		{
			"type" : "Feature",
			"geometry" : {
				"type" : "Point",
				"coordinates" : [ 7.8638194708, 46.0628788129, 4205.778712 ]
			},
			"properties" : {
				"OBJECTID" : 282,
				"HOEHE" : 4206,
				"NAME" : "Alphubel",
				"SPRACHCODE" : "Hochdeutsch inkl. Lokalsprachen"
			}
		},
		{
			"type" : "Feature",
			"geometry" : {
				"type" : "Point",
				"coordinates" : [ 7.8945942029, 46.0460936384, 4026.717512 ]
			},
			"properties" : {
				"OBJECTID" : 283,
				"HOEHE" : 4027,
				"NAME" : "Allalinhorn",
				"SPRACHCODE" : "Hochdeutsch inkl. Lokalsprachen"
			}
		},
		{
			"type" : "Feature",
			"geometry" : {
				"type" : "Point",
				"coordinates" : [ 8.0010624648, 46.0362177565, 3435.806212 ]
			},
			"properties" : {
				"OBJECTID" : 284,
				"HOEHE" : 3436,
				"NAME" : "Stellihorn",
				"SPRACHCODE" : "Hochdeutsch inkl. Lokalsprachen"
			}
		},
		{
			"type" : "Feature",
			"geometry" : {
				"type" : "Point",
				"coordinates" : [ 9.0402023777, 46.4937483144, 3401.776212 ]
			},
			"properties" : {
				"OBJECTID" : 285,
				"HOEHE" : 3402,
				"NAME" : "Rheinwaldhorn",
				"SPRACHCODE" : "Hochdeutsch inkl. Lokalsprachen"
			}
		},
		{
			"type" : "Feature",
			"geometry" : {
				"type" : "Point",
				"coordinates" : [ 9.0402023777, 46.4937483144, 3401.776212 ]
			},
			"properties" : {
				"OBJECTID" : 286,
				"HOEHE" : 3402,
				"NAME" : "Adula",
				"SPRACHCODE" : "Italienisch inkl. Lokalsprachen"
			}
		},
		{
			"type" : "Feature",
			"geometry" : {
				"type" : "Point",
				"coordinates" : [ 8.7258958924, 46.4297666097, 3071.428712 ]
			},
			"properties" : {
				"OBJECTID" : 287,
				"HOEHE" : 3072,
				"NAME" : "Pizzo Campo Tencia",
				"SPRACHCODE" : "Italienisch inkl. Lokalsprachen"
			}
		},
		{
			"type" : "Feature",
			"geometry" : {
				"type" : "Point",
				"coordinates" : [ 8.7141292684, 46.3541564512, 2735.107512 ]
			},
			"properties" : {
				"OBJECTID" : 288,
				"HOEHE" : 2735,
				"NAME" : "Monte Zucchero",
				"SPRACHCODE" : "Italienisch inkl. Lokalsprachen"
			}
		},
		{
			"type" : "Feature",
			"geometry" : {
				"type" : "Point",
				"coordinates" : [ 8.7678903414, 46.5250704004, 2773.001212 ]
			},
			"properties" : {
				"OBJECTID" : 289,
				"HOEHE" : 2773,
				"NAME" : "Pizzo del Sole",
				"SPRACHCODE" : "Italienisch inkl. Lokalsprachen"
			}
		},
		{
			"type" : "Feature",
			"geometry" : {
				"type" : "Point",
				"coordinates" : [ 9.1278920022, 46.5267206466, 3047.863712 ]
			},
			"properties" : {
				"OBJECTID" : 290,
				"HOEHE" : 3048,
				"NAME" : "Lorenzhorn",
				"SPRACHCODE" : "Hochdeutsch inkl. Lokalsprachen"
			}
		},
		{
			"type" : "Feature",
			"geometry" : {
				"type" : "Point",
				"coordinates" : [ 9.472883222, 46.5312121703, 3059.025012 ]
			},
			"properties" : {
				"OBJECTID" : 291,
				"HOEHE" : 3060,
				"NAME" : "Piz Grisch",
				"SPRACHCODE" : "Rumantsch Grischun inkl. Lokalsprachen"
			}
		},
		{
			"type" : "Feature",
			"geometry" : {
				"type" : "Point",
				"coordinates" : [ 9.2833039883, 46.4969814355, 3278.885012 ]
			},
			"properties" : {
				"OBJECTID" : 292,
				"HOEHE" : 3279,
				"NAME" : "Pizzo Tambo",
				"SPRACHCODE" : "Italienisch inkl. Lokalsprachen"
			}
		},
		{
			"type" : "Feature",
			"geometry" : {
				"type" : "Point",
				"coordinates" : [ 9.1127785426, 46.4796315276, 3154.651212 ]
			},
			"properties" : {
				"OBJECTID" : 293,
				"HOEHE" : 3155,
				"NAME" : "Zapporthorn",
				"SPRACHCODE" : "Hochdeutsch inkl. Lokalsprachen"
			}
		},
		{
			"type" : "Feature",
			"geometry" : {
				"type" : "Point",
				"coordinates" : [ 9.4877031837, 46.3669148241, 3106.916212 ]
			},
			"properties" : {
				"OBJECTID" : 294,
				"HOEHE" : 3107,
				"NAME" : "Pizz Gallagiun",
				"SPRACHCODE" : "Italienisch inkl. Lokalsprachen"
			}
		},
		{
			"type" : "Feature",
			"geometry" : {
				"type" : "Point",
				"coordinates" : [ 9.0736839836, 46.3449029891, 2955.551212 ]
			},
			"properties" : {
				"OBJECTID" : 295,
				"HOEHE" : 2956,
				"NAME" : "Torrone Alto",
				"SPRACHCODE" : "Italienisch inkl. Lokalsprachen"
			}
		},
		{
			"type" : "Feature",
			"geometry" : {
				"type" : "Point",
				"coordinates" : [ 9.0736839836, 46.3449029891, 2955.551212 ]
			},
			"properties" : {
				"OBJECTID" : 296,
				"HOEHE" : 2956,
				"NAME" : "Torent Alto",
				"SPRACHCODE" : "Italienisch inkl. Lokalsprachen"
			}
		},
		{
			"type" : "Feature",
			"geometry" : {
				"type" : "Point",
				"coordinates" : [ 8.097114633, 46.49384923, 3905.466212 ]
			},
			"properties" : {
				"OBJECTID" : 297,
				"HOEHE" : 3906,
				"NAME" : "Grosses Wannenhorn",
				"SPRACHCODE" : "Hochdeutsch inkl. Lokalsprachen"
			}
		},
		{
			"type" : "Feature",
			"geometry" : {
				"type" : "Point",
				"coordinates" : [ 7.8667569599, 45.936923663, 4633.497512 ]
			},
			"properties" : {
				"OBJECTID" : 298,
				"HOEHE" : 4634,
				"NAME" : "Dufourspitze",
				"SPRACHCODE" : "Hochdeutsch inkl. Lokalsprachen"
			}
		},
		{
			"type" : "Feature",
			"geometry" : {
				"type" : "Point",
				"coordinates" : [ 7.8667569599, 45.936923663, 4633.497512 ]
			},
			"properties" : {
				"OBJECTID" : 299,
				"HOEHE" : 4634,
				"NAME" : "Punta Dufour",
				"SPRACHCODE" : "Italienisch inkl. Lokalsprachen"
			}
		},
		{
			"type" : "Feature",
			"geometry" : {
				"type" : "Point",
				"coordinates" : [ 7.8667569599, 45.936923663, 4633.497512 ]
			},
			"properties" : {
				"OBJECTID" : 300,
				"HOEHE" : 4634,
				"NAME" : "Pointe Dufour",
				"SPRACHCODE" : "Franzoesisch inkl. Lokalsprachen"
			}
		},
		{
			"type" : "Feature",
			"geometry" : {
				"type" : "Point",
				"coordinates" : [ 8.7320906685, 46.8072581643, 3186.862512 ]
			},
			"properties" : {
				"OBJECTID" : 301,
				"HOEHE" : 3187,
				"NAME" : "Gross Windgällen",
				"SPRACHCODE" : "Hochdeutsch inkl. Lokalsprachen"
			}
		},
		{
			"type" : "Feature",
			"geometry" : {
				"type" : "Point",
				"coordinates" : [ 8.8712290207, 46.8420368555, 3267.073712 ]
			},
			"properties" : {
				"OBJECTID" : 302,
				"HOEHE" : 3267,
				"NAME" : "Clariden",
				"SPRACHCODE" : "Hochdeutsch inkl. Lokalsprachen"
			}
		},
		{
			"type" : "Feature",
			"geometry" : {
				"type" : "Point",
				"coordinates" : [ 8.8294742279, 46.8269569553, 3296.327512 ]
			},
			"properties" : {
				"OBJECTID" : 303,
				"HOEHE" : 3297,
				"NAME" : "Gross Schärhorn",
				"SPRACHCODE" : "Hochdeutsch inkl. Lokalsprachen"
			}
		},
		{
			"type" : "Feature",
			"geometry" : {
				"type" : "Point",
				"coordinates" : [ 9.0656196456, 46.8742968291, 3157.781212 ]
			},
			"properties" : {
				"OBJECTID" : 304,
				"HOEHE" : 3158,
				"NAME" : "Hausstock",
				"SPRACHCODE" : "Hochdeutsch inkl. Lokalsprachen"
			}
		},
		{
			"type" : "Feature",
			"geometry" : {
				"type" : "Point",
				"coordinates" : [ 8.9146372497, 46.811187893, 3612.226212 ]
			},
			"properties" : {
				"OBJECTID" : 305,
				"HOEHE" : 3613,
				"NAME" : "Piz Russein",
				"SPRACHCODE" : "Rumantsch Grischun inkl. Lokalsprachen"
			}
		},
		{
			"type" : "Feature",
			"geometry" : {
				"type" : "Point",
				"coordinates" : [ 8.9219485437, 46.8104361411, 3570.197512 ]
			},
			"properties" : {
				"OBJECTID" : 306,
				"HOEHE" : 3571,
				"NAME" : "Glarner Tödi",
				"SPRACHCODE" : "Hochdeutsch inkl. Lokalsprachen"
			}
		},
		{
			"type" : "Feature",
			"geometry" : {
				"type" : "Point",
				"coordinates" : [ 8.6813532997, 46.7368959501, 3072.932512 ]
			},
			"properties" : {
				"OBJECTID" : 307,
				"HOEHE" : 3073,
				"NAME" : "Bristen",
				"SPRACHCODE" : "Hochdeutsch inkl. Lokalsprachen"
			}
		},
		{
			"type" : "Feature",
			"geometry" : {
				"type" : "Point",
				"coordinates" : [ 8.6925793337, 46.7018503693, 3095.862512 ]
			},
			"properties" : {
				"OBJECTID" : 308,
				"HOEHE" : 3096,
				"NAME" : "Piz Giuv",
				"SPRACHCODE" : "Rumantsch Grischun inkl. Lokalsprachen"
			}
		},
		{
			"type" : "Feature",
			"geometry" : {
				"type" : "Point",
				"coordinates" : [ 8.6925793337, 46.7018503693, 3095.862512 ]
			},
			"properties" : {
				"OBJECTID" : 309,
				"HOEHE" : 3096,
				"NAME" : "Schattig Wichel",
				"SPRACHCODE" : "Hochdeutsch inkl. Lokalsprachen"
			}
		},
		{
			"type" : "Feature",
			"geometry" : {
				"type" : "Point",
				"coordinates" : [ 8.7694581869, 46.7427129728, 3327.948712 ]
			},
			"properties" : {
				"OBJECTID" : 310,
				"HOEHE" : 3328,
				"NAME" : "Piz Tgietschen",
				"SPRACHCODE" : "Rumantsch Grischun inkl. Lokalsprachen"
			}
		},
		{
			"type" : "Feature",
			"geometry" : {
				"type" : "Point",
				"coordinates" : [ 8.7694581869, 46.7427129728, 3327.948712 ]
			},
			"properties" : {
				"OBJECTID" : 311,
				"HOEHE" : 3328,
				"NAME" : "Oberalpstock",
				"SPRACHCODE" : "Hochdeutsch inkl. Lokalsprachen"
			}
		},
		{
			"type" : "Feature",
			"geometry" : {
				"type" : "Point",
				"coordinates" : [ 8.9482003586, 46.9253869077, 2716.307512 ]
			},
			"properties" : {
				"OBJECTID" : 312,
				"HOEHE" : 2717,
				"NAME" : "Ortstock",
				"SPRACHCODE" : "Hochdeutsch inkl. Lokalsprachen"
			}
		},
		{
			"type" : "Feature",
			"geometry" : {
				"type" : "Point",
				"coordinates" : [ 8.7864319097, 46.6120246444, 3039.555012 ]
			},
			"properties" : {
				"OBJECTID" : 313,
				"HOEHE" : 3040,
				"NAME" : "Piz Gannaretsch",
				"SPRACHCODE" : "Rumantsch Grischun inkl. Lokalsprachen"
			}
		},
		{
			"type" : "Feature",
			"geometry" : {
				"type" : "Point",
				"coordinates" : [ 8.829999135, 46.5717120334, 3189.652512 ]
			},
			"properties" : {
				"OBJECTID" : 314,
				"HOEHE" : 3190,
				"NAME" : "Scopi",
				"SPRACHCODE" : "Rumantsch Grischun inkl. Lokalsprachen"
			}
		},
		{
			"type" : "Feature",
			"geometry" : {
				"type" : "Point",
				"coordinates" : [ 8.7507552176, 46.5762126079, 3015.557512 ]
			},
			"properties" : {
				"OBJECTID" : 315,
				"HOEHE" : 3016,
				"NAME" : "Piz Rondadura",
				"SPRACHCODE" : "Rumantsch Grischun inkl. Lokalsprachen"
			}
		},
		{
			"type" : "Feature",
			"geometry" : {
				"type" : "Point",
				"coordinates" : [ 8.7279855557, 46.5770760984, 3018.691212 ]
			},
			"properties" : {
				"OBJECTID" : 316,
				"HOEHE" : 3019,
				"NAME" : "Piz Blas",
				"SPRACHCODE" : "Rumantsch Grischun inkl. Lokalsprachen"
			}
		},
		{
			"type" : "Feature",
			"geometry" : {
				"type" : "Point",
				"coordinates" : [ 8.7031883266, 46.5843136284, 3006.130012 ]
			},
			"properties" : {
				"OBJECTID" : 317,
				"HOEHE" : 3007,
				"NAME" : "Piz Ravetsch",
				"SPRACHCODE" : "Rumantsch Grischun inkl. Lokalsprachen"
			}
		},
		{
			"type" : "Feature",
			"geometry" : {
				"type" : "Point",
				"coordinates" : [ 8.6149377241, 46.5781563002, 2998.923712 ]
			},
			"properties" : {
				"OBJECTID" : 318,
				"HOEHE" : 2999,
				"NAME" : "Pizzo Centrale",
				"SPRACHCODE" : "Italienisch inkl. Lokalsprachen"
			}
		},
		{
			"type" : "Feature",
			"geometry" : {
				"type" : "Point",
				"coordinates" : [ 8.9111628211, 46.6182534286, 3209.312512 ]
			},
			"properties" : {
				"OBJECTID" : 319,
				"HOEHE" : 3210,
				"NAME" : "Piz Medel",
				"SPRACHCODE" : "Rumantsch Grischun inkl. Lokalsprachen"
			}
		},
		{
			"type" : "Feature",
			"geometry" : {
				"type" : "Point",
				"coordinates" : [ 9.0340733636, 46.6000276671, 3148.876212 ]
			},
			"properties" : {
				"OBJECTID" : 320,
				"HOEHE" : 3149,
				"NAME" : "Piz Terri",
				"SPRACHCODE" : "Rumantsch Grischun inkl. Lokalsprachen"
			}
		},
		{
			"type" : "Feature",
			"geometry" : {
				"type" : "Point",
				"coordinates" : [ 9.1250557199, 46.6227847598, 3120.710012 ]
			},
			"properties" : {
				"OBJECTID" : 321,
				"HOEHE" : 3121,
				"NAME" : "Piz Aul",
				"SPRACHCODE" : "Rumantsch Grischun inkl. Lokalsprachen"
			}
		},
		{
			"type" : "Feature",
			"geometry" : {
				"type" : "Point",
				"coordinates" : [ 9.3579188298, 46.6525552108, 2997.480012 ]
			},
			"properties" : {
				"OBJECTID" : 322,
				"HOEHE" : 2998,
				"NAME" : "Piz Beverin",
				"SPRACHCODE" : "Rumantsch Grischun inkl. Lokalsprachen"
			}
		},
		{
			"type" : "Feature",
			"geometry" : {
				"type" : "Point",
				"coordinates" : [ 8.0614862783, 46.551332847, 4048.477512 ]
			},
			"properties" : {
				"OBJECTID" : 323,
				"HOEHE" : 4049,
				"NAME" : "Grosses Fiescherhorn",
				"SPRACHCODE" : "Hochdeutsch inkl. Lokalsprachen"
			}
		},
		{
			"type" : "Feature",
			"geometry" : {
				"type" : "Point",
				"coordinates" : [ 8.9574927567, 46.8041957787, 3418.147512 ]
			},
			"properties" : {
				"OBJECTID" : 324,
				"HOEHE" : 3419,
				"NAME" : "Piz Durschin",
				"SPRACHCODE" : "Rumantsch Grischun inkl. Lokalsprachen"
			}
		},
		{
			"type" : "Feature",
			"geometry" : {
				"type" : "Point",
				"coordinates" : [ 8.9574927567, 46.8041957787, 3418.147512 ]
			},
			"properties" : {
				"OBJECTID" : 325,
				"HOEHE" : 3419,
				"NAME" : "Bifertenstock",
				"SPRACHCODE" : "Hochdeutsch inkl. Lokalsprachen"
			}
		},
		{
			"type" : "Feature",
			"geometry" : {
				"type" : "Point",
				"coordinates" : [ 8.4198030232, 46.6314169204, 3565.726212 ]
			},
			"properties" : {
				"OBJECTID" : 326,
				"HOEHE" : 3566,
				"NAME" : "Vorderer Rhonestock",
				"SPRACHCODE" : "Hochdeutsch inkl. Lokalsprachen"
			}
		},
		{
			"type" : "Feature",
			"geometry" : {
				"type" : "Point",
				"coordinates" : [ 9.7183999846, 46.3064912682, 3365.502512 ]
			},
			"properties" : {
				"OBJECTID" : 327,
				"HOEHE" : 3366,
				"NAME" : "Cima di Rosso",
				"SPRACHCODE" : "Italienisch inkl. Lokalsprachen"
			}
		},
		{
			"type" : "Feature",
			"geometry" : {
				"type" : "Point",
				"coordinates" : [ 9.6222907288, 46.2877986088, 3288.620012 ]
			},
			"properties" : {
				"OBJECTID" : 328,
				"HOEHE" : 3289,
				"NAME" : "Cima della Bondasca",
				"SPRACHCODE" : "Italienisch inkl. Lokalsprachen"
			}
		},
		{
			"type" : "Feature",
			"geometry" : {
				"type" : "Point",
				"coordinates" : [ 8.0347621431, 46.1007687493, 3655.803712 ]
			},
			"properties" : {
				"OBJECTID" : 329,
				"HOEHE" : 3656,
				"NAME" : "Pizzo d'Andolla",
				"SPRACHCODE" : "Italienisch inkl. Lokalsprachen"
			}
		},
		{
			"type" : "Feature",
			"geometry" : {
				"type" : "Point",
				"coordinates" : [ 7.7932478297, 45.9208215286, 4222.790012 ]
			},
			"properties" : {
				"OBJECTID" : 330,
				"HOEHE" : 4223,
				"NAME" : "Castor",
				"SPRACHCODE" : "Hochdeutsch inkl. Lokalsprachen"
			}
		},
		{
			"type" : "Feature",
			"geometry" : {
				"type" : "Point",
				"coordinates" : [ 7.7932478297, 45.9208215286, 4222.790012 ]
			},
			"properties" : {
				"OBJECTID" : 331,
				"HOEHE" : 4223,
				"NAME" : "Punta Castore",
				"SPRACHCODE" : "Italienisch inkl. Lokalsprachen"
			}
		},
		{
			"type" : "Feature",
			"geometry" : {
				"type" : "Point",
				"coordinates" : [ 9.7508331978, 46.4833407475, 2932.915012 ]
			},
			"properties" : {
				"OBJECTID" : 332,
				"HOEHE" : 2933,
				"NAME" : "Botta dal Tiroler",
				"SPRACHCODE" : "Rumantsch Grischun inkl. Lokalsprachen"
			}
		},
		{
			"type" : "Feature",
			"geometry" : {
				"type" : "Point",
				"coordinates" : [ 7.0111655197, 45.9953200489, 3539.811212 ]
			},
			"properties" : {
				"OBJECTID" : 333,
				"HOEHE" : 3540,
				"NAME" : "Aiguilles du Tour",
				"SPRACHCODE" : "Franzoesisch inkl. Lokalsprachen"
			}
		},
		{
			"type" : "Feature",
			"geometry" : {
				"type" : "Point",
				"coordinates" : [ 7.0103015062, 45.9943427821, 3539.745012 ]
			},
			"properties" : {
				"OBJECTID" : 334,
				"HOEHE" : 3540,
				"NAME" : "Aiguilles du Tour",
				"SPRACHCODE" : "Franzoesisch inkl. Lokalsprachen"
			}
		},
		{
			"type" : "Feature",
			"geometry" : {
				"type" : "Point",
				"coordinates" : [ 7.0202604376, 45.9597851972, 3895.951212 ]
			},
			"properties" : {
				"OBJECTID" : 335,
				"HOEHE" : 3897,
				"NAME" : "Aiguille d'Argentière",
				"SPRACHCODE" : "Franzoesisch inkl. Lokalsprachen"
			}
		},
		{
			"type" : "Feature",
			"geometry" : {
				"type" : "Point",
				"coordinates" : [ 7.0367467834, 45.9525402278, 3752.145012 ]
			},
			"properties" : {
				"OBJECTID" : 336,
				"HOEHE" : 3753,
				"NAME" : "Aiguille de l'A Neuve",
				"SPRACHCODE" : "Franzoesisch inkl. Lokalsprachen"
			}
		},
		{
			"type" : "Feature",
			"geometry" : {
				"type" : "Point",
				"coordinates" : [ 7.0357266914, 45.9383333861, 3678.955012 ]
			},
			"properties" : {
				"OBJECTID" : 337,
				"HOEHE" : 3680,
				"NAME" : "Pointe Kurz",
				"SPRACHCODE" : "Franzoesisch inkl. Lokalsprachen"
			}
		},
		{
			"type" : "Feature",
			"geometry" : {
				"type" : "Point",
				"coordinates" : [ 7.0366696826, 45.9435020497, 3588.955012 ]
			},
			"properties" : {
				"OBJECTID" : 338,
				"HOEHE" : 3590,
				"NAME" : "Pointe Morin",
				"SPRACHCODE" : "Franzoesisch inkl. Lokalsprachen"
			}
		},
		{
			"type" : "Feature",
			"geometry" : {
				"type" : "Point",
				"coordinates" : [ 7.0374877594, 45.9488709733, 3835.722512 ]
			},
			"properties" : {
				"OBJECTID" : 339,
				"HOEHE" : 3836,
				"NAME" : "Tour Noir",
				"SPRACHCODE" : "Franzoesisch inkl. Lokalsprachen"
			}
		},
		{
			"type" : "Feature",
			"geometry" : {
				"type" : "Point",
				"coordinates" : [ 7.0461656796, 45.9219621985, 3819.452512 ]
			},
			"properties" : {
				"OBJECTID" : 340,
				"HOEHE" : 3820,
				"NAME" : "Mont Dolent",
				"SPRACHCODE" : "Franzoesisch inkl. Lokalsprachen"
			}
		},
		{
			"type" : "Feature",
			"geometry" : {
				"type" : "Point",
				"coordinates" : [ 7.5385250163, 45.9548995799, 3577.007512 ]
			},